id,comercioId,banderaId,banderaDescripcion,comercioRazonSocial,provincia,localidad,direccion,lat,lng,sucursalNombre,sucursalTipo
117,1,1,SUPER MAMI,DINOSAURIO S.A.,AR-X,SALSIPUEDES,E53 1011 NONE,-31.126667,-64.29525,Super Mami 4,Hipermercado
1011,10,1,HIPERMERCADO CARREFOUR,INC S.A.,AR-B,SAN ISIDRO,BERNARDO DE IRIGOYEN 2647,-34.491345,-58.589025,San Isidro,Hipermercado
10110,10,1,HIPERMERCADO CARREFOUR,INC S.A.,AR-B,HURLINGHAM,AV. VERGARA 1910,-34.62061,-58.633769,Villa Tesei,Hipermercado
10111,10,1,HIPERMERCADO CARREFOUR,INC S.A.,AR-B,MALVINAS ARGENTINAS,AV. ARTURO ILLIA 3770,-34.528883,-58.701631000000006,Malvinas Argentinas,Hipermercado
101112,10,1,HIPERMERCADO CARREFOUR,INC S.A.,AR-A,SALTA,20 DE FEBRERO 37,-24.789072,-65.413699,Salta,Hipermercado
10112,10,1,HIPERMERCADO CARREFOUR,INC S.A.,AR-B,SAN JUSTO,AV. DON BOSCO 2680,-34.664628,-58.59735600000001,San Justo,Hipermercado
101123,10,1,HIPERMERCADO CARREFOUR,INC S.A.,AR-J,SAN JUAN,GRAL. ACHA 32,-31.534016,-68.524744,San Juan,Supermercado
101128,10,1,HIPERMERCADO CARREFOUR,INC S.A.,AR-U,COMODORO RIVADAVIA,PELLEGRINI 851,-45.861562,-67.479968,Comodoro Rivadavia,Hipermercado
101136,10,1,HIPERMERCADO CARREFOUR,INC S.A.,AR-R,GENERAL ROCA,25 DE MAYO 622,-39.030326,-67.573775,General Roca,Supermercado
101139,10,1,HIPERMERCADO CARREFOUR,INC S.A.,AR-B,OLAVARRIA,RIVADAVIA 2846,-36.893694,-60.32165,Olavarría,Hipermercado
101142,10,1,HIPERMERCADO CARREFOUR,INC S.A.,AR-V,RIO GRANDE,AV. SAN MARTIN 685,-53.785009,-67.70299,Río Grande,Supermercado
101147,10,1,HIPERMERCADO CARREFOUR,INC S.A.,AR-L,SANTA ROSA,AVELLANEDA 151,-36.618338,-64.291249,Santa Rosa,Hipermercado
101149,10,1,HIPERMERCADO CARREFOUR,INC S.A.,AR-R,BARILOCHE,MORENO 909,-41.136201,-71.29679200000002,Bariloche,Hipermercado
10115,10,1,HIPERMERCADO CARREFOUR,INC S.A.,AR-B,SAN MARTIN,AV. SAN MARTIN 420,-34.586322,-58.519449,San Martín,Hipermercado
101156,10,1,HIPERMERCADO CARREFOUR,INC S.A.,AR-B,SAN NICOLAS,BARTOLOME MITRE 264,-33.331816,-60.220188,San Nicolás,Hipermercado
101157,10,1,HIPERMERCADO CARREFOUR,INC S.A.,AR-Q,NEUQUEN,AV. CORONEL OLASCOAGA 350,-38.958858,-68.058932,Neuquén,Hipermercado
101159,10,1,HIPERMERCADO CARREFOUR,INC S.A.,AR-W,CORRIENTES,AV. FERRE 2985,-27.477092,-58.815872,Corrientes,Hipermercado
10116,10,1,HIPERMERCADO CARREFOUR,INC S.A.,AR-B,MONTE GRANDE,CAMINO DE CINTURA 2200,-34.780839,-58.457944,Monte Grande,Hipermercado
101161,10,1,HIPERMERCADO CARREFOUR,INC S.A.,AR-V,USHUAIA,12 DE OCTUBRE 169,-54.815339,-68.334293,Ushuaia,Hipermercado
101162,10,1,HIPERMERCADO CARREFOUR,INC S.A.,AR-U,TRELEW,SOBERANIA NACIONAL 140,-43.257504,-65.305489,Trelew,Hipermercado
10117,10,1,HIPERMERCADO CARREFOUR,INC S.A.,AR-M,GUAYMALLEN,AV. ACCESO ESTE LATERAL SUR NONE,-32.908234,-68.789274,Mendoza Guaymallén,Hipermercado
101171,10,1,HIPERMERCADO CARREFOUR,INC S.A.,AR-A,SALTA,AV. BICENTENARIO BATALLA DE SALTA 702,-24.781285,-65.401667,Salta III,Hipermercado
101175,10,1,HIPERMERCADO CARREFOUR,INC S.A.,AR-A,SALTA,AV. ENTRE RIOS 1816,-24.779652,-65.427437,Salta VII,Hipermercado
101178,10,1,HIPERMERCADO CARREFOUR,INC S.A.,AR-K,SAN FERNANDO DEL VALLE DE CATAMARCA,HIPOLITO YRIGOYEN 1283,-28.477093,-65.778283,Catamarca,Supermercado
101179,10,1,HIPERMERCADO CARREFOUR,INC S.A.,AR-U,PUERTO MADRYN,GALES 1315,-42.775492,-65.048586,Puerto Madryn,Hipermercado
10118,10,1,HIPERMERCADO CARREFOUR,INC S.A.,AR-S,ROSARIO,AV. CIRCUNVALACION NONE,-32.904529,-60.727936,Rosario Fisherton,Hipermercado
101180,10,1,HIPERMERCADO CARREFOUR,INC S.A.,AR-V,RIO GRANDE,PERU 76,-53.774139,-67.721621,Rio Grande II,Hipermercado
101183,10,1,HIPERMERCADO CARREFOUR,INC S.A.,AR-B,MASCHWITZ,JUAN BAUTISTA ALBERDI 555,-34.395346999999994,-58.738836,Maschwitz,Hipermercado
1012,10,1,HIPERMERCADO CARREFOUR,INC S.A.,AR-B,VICENTE LOPEZ,AV. DEL LIBERTADOR 215,-34.532302,-58.468176,Vicente López,Hipermercado
101204,10,1,HIPERMERCADO CARREFOUR,INC S.A.,AR-B,OLIVOS,GOB. UGARTE 1980,-34.516305,-58.494552,Ugarte,Hipermercado
10121,10,1,HIPERMERCADO CARREFOUR,INC S.A.,AR-B,MORENO,AV. GAONA Y GRAHAM BELL NONE,-34.633337,-58.764283,Moreno,Hipermercado
101210,10,1,HIPERMERCADO CARREFOUR,INC S.A.,AR-B,ZARATE,AV. LAVALLE 1879,-34.113271999999995,-59.020315,Zárate,Hipermercado
101214,10,1,HIPERMERCADO CARREFOUR,INC S.A.,AR-C,CIUDAD AUTONOMA DE BUENOS AIRES,JOSE PEDRO VARELA 4750,-34.610359,-58.516538,Villa Devoto,Hipermercado
101217,10,1,HIPERMERCADO CARREFOUR,INC S.A.,AR-B,SAN MIGUEL,AV. PDTE. J. D. PERON 111,-34.553106,-58.69825600000001,Bella Vista,Hipermercado
101219,10,1,HIPERMERCADO CARREFOUR,INC S.A.,AR-C,CIUDAD AUTONOMA DE BUENOS AIRES,AV. DONATO ALVAREZ 1351,-34.611087,-58.460584,Caballito,Hipermercado
10122,10,1,HIPERMERCADO CARREFOUR,INC S.A.,AR-B,MAR DEL PLATA,AV. CONSTITUCION 7598,-37.953878,-57.579192000000006,Mar del Plata,Hipermercado
101220,10,1,HIPERMERCADO CARREFOUR,INC S.A.,AR-C,CIUDAD AUTONOMA DE BUENOS AIRES,AV. ROOSEVELT 5749,-34.577205,-58.494765,Villa Urquiza,Hipermercado
101227,10,1,HIPERMERCADO CARREFOUR,INC S.A.,AR-B,BERNAL,AV. DARDO ROCHA 849,-34.715471,-58.298863,Bernal,Hipermercado
101229,10,1,HIPERMERCADO CARREFOUR,INC S.A.,AR-B,PERGAMINO,SANTIAGO DEL ESTERO 1351,-33.900993,-60.55175500000001,Pergamino,Hipermercado
10123,10,1,HIPERMERCADO CARREFOUR,INC S.A.,AR-B,ADROGUE,HIPOLITO YRIGOYEN 13500,-34.812068,-58.39941700000001,Adrogué,Hipermercado
101231,10,1,HIPERMERCADO CARREFOUR,INC S.A.,AR-B,LOMAS DE ZAMORA,OLIDEN 450,-34.768774,-58.411275,Lomas de Zamora,Hipermercado
101232,10,1,HIPERMERCADO CARREFOUR,INC S.A.,AR-B,CAMPANA,COLECTORA NORTE 1647,-34.18654,-58.945418,Campana II,Hipermercado
101233,10,1,HIPERMERCADO CARREFOUR,INC S.A.,AR-E,CONCORDIA,AV. EVA PERON 2250,-31.368882,-58.011377,Concordia,Hipermercado
101234,10,1,HIPERMERCADO CARREFOUR,INC S.A.,AR-B,DON TORCUATO,AV. ANGEL T. DE ALVEAR 1960,-34.491603000000005,-58.62767,Don Torcuato,Hipermercado
101235,10,1,HIPERMERCADO CARREFOUR,INC S.A.,AR-D,VILLA MERCEDES,AV. 25 DE MAYO 876,-33.675929,-65.469225,Villa Mercedes,Hipermercado
101239,10,1,HIPERMERCADO CARREFOUR,INC S.A.,AR-B,GENERAL PACHECO,BOULOGNE SUR MER 301,-34.46134,-58.629233,Gral. Pacheco,Hipermercado
10124,10,1,HIPERMERCADO CARREFOUR,INC S.A.,AR-X,JARDIN ESPINOZA,AV. O'HIGGINS 3765,-31.455534000000004,-64.166095,Córdoba Jardín,Hipermercado
101240,10,1,HIPERMERCADO CARREFOUR,INC S.A.,AR-E,GUALEGUAYCHU,AV. PRIMERA JUNTA NONE,-32.991736,-58.521853,Gualeguaychú,Hipermercado
101241,10,1,HIPERMERCADO CARREFOUR,INC S.A.,AR-B,LUJAN,AV. PELLEGRINI 1050,-34.561648,-59.103745,Luján,Hipermercado
10125,10,1,HIPERMERCADO CARREFOUR,INC S.A.,AR-B,SAN FERNANDO,RUTA 202 NONE,-34.453587,-58.57552800000001,San Fernando,Hipermercado
101259,10,1,HIPERMERCADO CARREFOUR,INC S.A.,AR-S,VENADO TUERTO,BVARD. 12 DE OCTUBRE 1060,-33.744187,-61.982983,Venado Tuerto,Hipermercado
10126,10,1,HIPERMERCADO CARREFOUR,INC S.A.,AR-C,CIUDAD AUTONOMA DE BUENOS AIRES,WARNES 2707,-34.595836,-58.473941,Warnes,Hipermercado
101268,10,1,HIPERMERCADO CARREFOUR,INC S.A.,AR-S,ROSARIO,PUEYRREDON 747,-32.942435,-60.657028,Rosario Pueyrredón,Hipermercado
101271,10,1,HIPERMERCADO CARREFOUR,INC S.A.,AR-C,CIUDAD AUTONOMA DE BUENOS AIRES,AV. MONROE 1655,-34.55398,-58.452838,Belgrano,Hipermercado
10128,10,1,HIPERMERCADO CARREFOUR,INC S.A.,AR-B,PILAR,AV. LAGOMARSINO 905,-34.454933000000004,-58.894408,Pilar,Hipermercado
10129,10,1,HIPERMERCADO CARREFOUR,INC S.A.,AR-M,MENDOZA,LAS HERAS 798,-32.885049,-68.848197,Mendoza Azul Centro,Hipermercado
101292,10,1,HIPERMERCADO CARREFOUR,INC S.A.,AR-U,COMODORO RIVADAVIA,AV. POLONIA 1340,-45.870032,-67.532667,Comodoro Rivadavia Polonia,Hipermercado
101294,10,1,HIPERMERCADO CARREFOUR,INC S.A.,AR-B,ITUZAINGO,BLAS PARERA 650,-34.665048,-58.66264,Ituzaingó II,Hipermercado
101297,10,1,HIPERMERCADO CARREFOUR,INC S.A.,AR-B,GENERAL RODRIGUEZ,BERNARDO DE IRIGOYEN 1500,-34.611076000000004,-58.941293,Gral. Rodríguez,Supermercado
10130,10,1,HIPERMERCADO CARREFOUR,INC S.A.,AR-C,CIUDAD AUTONOMA DE BUENOS AIRES,AV. GRAL. PAZ 12950,-34.663863,-58.514126,Mataderos,Hipermercado
10131,10,1,HIPERMERCADO CARREFOUR,INC S.A.,AR-B,TANDIL,PANAMA 351,-37.324111,-59.11456800000001,Tandil,Hipermercado
10132,10,1,HIPERMERCADO CARREFOUR,INC S.A.,AR-S,ROSARIO,C. PELLEGRINI 3250,-32.951846999999994,-60.670442,Rosario Centro,Hipermercado
10133,10,1,HIPERMERCADO CARREFOUR,INC S.A.,AR-S,ROSARIO,NECOCHEA 2579,-32.970122,-60.62856,Rosario Sur,Hipermercado
10136,10,1,HIPERMERCADO CARREFOUR,INC S.A.,AR-B,ITUZAINGO,AV. ING. RATTI 1860,-34.647756,-58.688217,Ituzaingó,Hipermercado
10140,10,1,HIPERMERCADO CARREFOUR,INC S.A.,AR-B,TEMPERLEY,AV. EVA PERON 2679,-34.763559,-58.36439100000001,Temperley,Hipermercado
10141,10,1,HIPERMERCADO CARREFOUR,INC S.A.,AR-S,ROSARIO,EVA PERON 5856,-32.934019,-60.702038,Rosario Village,Supermercado
10142,10,1,HIPERMERCADO CARREFOUR,INC S.A.,AR-B,MERLO,AV. ARGENTINA 1915,-34.679311,-58.72799200000001,Merlo,Hipermercado
10143,10,1,HIPERMERCADO CARREFOUR,INC S.A.,AR-B,HAEDO,DR. LUIS GUEMES 369,-34.638763,-58.581518,Haedo,Hipermercado
10144,10,1,HIPERMERCADO CARREFOUR,INC S.A.,AR-H,RESISTENCIA,AV. AVALOS NONE,-27.4388,-58.987383,Resistencia II,Hipermercado
10145,10,1,HIPERMERCADO CARREFOUR,INC S.A.,AR-U,TRELEW,25 DE MAYO 1665,-43.258861,-65.329062,Trelew III,Supermercado
10146,10,1,HIPERMERCADO CARREFOUR,INC S.A.,AR-T,SAN MIGUEL DE TUCUMAN,AV. CATAMARCA 1116,-26.814605,-65.209515,Tucumán III,Hipermercado
10147,10,1,HIPERMERCADO CARREFOUR,INC S.A.,AR-B,MARTIN CORONADO,AV. PDTE. J. D. PERON 7055,-34.587243,-58.593697,Martín Coronado,Hipermercado
10148,10,1,HIPERMERCADO CARREFOUR,INC S.A.,AR-Z,RIO GALLEGOS,PASEO DE LOS ARRIEROS 1098,-51.62821,-69.24676099999999,Rio Gallegos II,Hipermercado
10149,10,1,HIPERMERCADO CARREFOUR,INC S.A.,AR-B,FLORENCIO VARELA,AV. GRAL. JOSE DE SAN MARTIN 554,-34.779585,-58.279265,Florencio Varela,Hipermercado
1015,10,1,HIPERMERCADO CARREFOUR,INC S.A.,AR-C,CIUDAD AUTONOMA DE BUENOS AIRES,AV. ALVAREZ JONTE 6383,-34.633237,-58.521966000000006,Vélez Sarsfield,Hipermercado
10150,10,1,HIPERMERCADO CARREFOUR,INC S.A.,AR-X,QUINTAS DE ARGUELLO,RECTA MARTINOLLI 7850,-31.346646000000003,-64.269297,Córdoba Recta Martinolli,Hipermercado
10151,10,1,HIPERMERCADO CARREFOUR,INC S.A.,AR-B,TIGRE,SANTA MARIA DE LAS CONCHAS 4500,-34.406164000000004,-58.619971,Rincon de Milberg,Hipermercado
10152,10,1,HIPERMERCADO CARREFOUR,INC S.A.,AR-B,LOMAS DE ZAMORA,LAS HERAS 1163,-34.748145,-58.411227,Banfield,Hipermercado
10153,10,1,HIPERMERCADO CARREFOUR,INC S.A.,AR-Q,NEUQUEN,ANTARTIDA ARGENTINA 3600,-38.94682,-68.110433,Neuquén Antártida Argentina,Hipermercado
10154,10,1,HIPERMERCADO CARREFOUR,INC S.A.,AR-X,VILLA ALLENDE LOMAS,AV. RIO DE JANEIRO 1787,-31.300019,-64.276462,Córdoba Villa Allende,Hipermercado
10155,10,1,HIPERMERCADO CARREFOUR,INC S.A.,AR-P,FORMOSA,AV. GUSTNISKY 2040,-26.190381,-58.187564,Formosa La Rural,Hipermercado
10156,10,1,HIPERMERCADO CARREFOUR,INC S.A.,AR-B,GLEW,AV. HIPOLITO YRIGOYEN 20260,-34.883091,-58.38823000000001,Glew,Hipermercado
10157,10,1,HIPERMERCADO CARREFOUR,INC S.A.,AR-B,TANDIL,AV. DEL VALLE 324,-37.31454,-59.147927,Tandil III,Hipermercado
10158,10,1,HIPERMERCADO CARREFOUR,INC S.A.,AR-B,BALCARCE,AV. SAN MARTIN 405,-37.833135,-58.237878,Balcarce,Hipermercado
1016,10,1,HIPERMERCADO CARREFOUR,INC S.A.,AR-C,CIUDAD AUTONOMA DE BUENOS AIRES,JERONIMO SALGUERO 3212,-34.574635,-58.403801,Salguero,Hipermercado
10163,10,1,HIPERMERCADO CARREFOUR,INC S.A.,AR-Z,SANTA CRUZ,HUMBERTO BEGHIN 762,-46.444906,-67.533789,Caleta Olivia,Hipermercado
1017,10,1,HIPERMERCADO CARREFOUR,INC S.A.,AR-B,QUILMES,AV. LA PLATA 1400,-34.735911,-58.277988,Quilmes,Hipermercado
1018,10,1,HIPERMERCADO CARREFOUR,INC S.A.,AR-B,LA PLATA,CAMINO GRAL. BELGRANO NONE,-34.893654999999995,-57.996156000000006,La Plata,Hipermercado
1019,10,1,HIPERMERCADO CARREFOUR,INC S.A.,AR-X,VILLA URQUIZA,AV. COLON 4880,-31.393915000000003,-64.242835,Córdoba Colon,Hipermercado
102101,10,2,MARKET,INC S.A.,AR-B,AVELLANEDA,AV. BELGRANO 422,-34.661465,-58.368212,Avellaneda II,Supermercado
102109,10,2,MARKET,INC S.A.,AR-B,LA PLATA,CALLE 7 767,-34.913497,-57.951821,La Plata I,Supermercado
102110,10,2,MARKET,INC S.A.,AR-W,CORRIENTES,JUNIN 1336,-27.467798,-58.83402099999999,Corrientes Junin,Hipermercado
102114,10,2,MARKET,INC S.A.,AR-B,BAHIA BLANCA,BROWN 51,-38.72041,-62.26794200000001,Bahia Blanca I,Supermercado
102115,10,2,MARKET,INC S.A.,AR-C,CIUDAD AUTONOMA DE BUENOS AIRES,AV. RIVADAVIA 6538,-34.627423,-58.45817,Flores,Supermercado
102116,10,2,MARKET,INC S.A.,AR-C,CIUDAD AUTONOMA DE BUENOS AIRES,AV. SANTA FE 1954,-34.595813,-58.395425,Av. Santa Fe 1954,Supermercado
102118,10,2,MARKET,INC S.A.,AR-C,CIUDAD AUTONOMA DE BUENOS AIRES,VICENTE LOPEZ 1676,-34.591951,-58.389726,Vicente López 1676,Hipermercado
102119,10,2,MARKET,INC S.A.,AR-X,RIO CUARTO,SOBREMONTE 902,-33.125271000000005,-64.349014,Río Cuarto,Supermercado
102120,10,2,MARKET,INC S.A.,AR-C,CIUDAD AUTONOMA DE BUENOS AIRES,AV. CABILDO 2441,-34.558821,-58.459349,Belgrano Cabildo,Supermercado
102122,10,2,MARKET,INC S.A.,AR-Y,JUJUY,BELGRANO 823,-24.185348,-65.304604,Jujuy,Hipermercado
102125,10,2,MARKET,INC S.A.,AR-E,PARANA,URUGUAY 35,-31.730408,-60.528649,Parana Uruguay,Supermercado
102130,10,2,MARKET,INC S.A.,AR-B,MAR DEL PLATA,CATAMARCA 1965,-37.998923,-57.553648,Mar del Plata Centro,Supermercado
102132,10,2,MARKET,INC S.A.,AR-K,SAN FERNANDO DEL VALLE DE CATAMARCA,RIVADAVIA 945,-28.472753000000004,-65.77843399999999,Catamarca II,Supermercado
102134,10,2,MARKET,INC S.A.,AR-B,TANDIL,9 DE JULIO 548,-37.326474,-59.135087,Tandil II,Supermercado
102135,10,2,MARKET,INC S.A.,AR-F,LA RIOJA,25 DE MAYO 151,-29.411481,-66.856755,La Rioja,Supermercado
102137,10,2,MARKET,INC S.A.,AR-D,SAN LUIS,PRINGLES 963,-33.302748,-66.336848,San Luis,Supermercado
102138,10,2,MARKET,INC S.A.,AR-E,CONCORDIA,ENTRE RIOS 635,-31.396866,-58.01860300000001,Concordia II,Supermercado
102141,10,2,MARKET,INC S.A.,AR-P,FORMOSA,ESPANA 198,-26.18141,-58.166895,Formosa,Hipermercado
102143,10,2,MARKET,INC S.A.,AR-Z,RIO GALLEGOS,AV. DR. NESTOR KIRCHNER 742,-51.62268,-69.21284,Río Gallegos,Hipermercado
102144,10,2,MARKET,INC S.A.,AR-B,LA PLATA,CALLE 12 1200,-34.923010999999995,-57.94993100000001,La Plata II,Supermercado
102146,10,2,MARKET,INC S.A.,AR-U,TRELEW,9 DE JULIO 194,-43.251438,-65.30959200000001,Trelew II,Supermercado
102148,10,2,MARKET,INC S.A.,AR-C,CIUDAD AUTONOMA DE BUENOS AIRES,AV. RIVADAVIA 999,-34.608259000000004,-58.38053299999999,9 de Julio,Supermercado
102150,10,2,MARKET,INC S.A.,AR-C,CIUDAD AUTONOMA DE BUENOS AIRES,SANTA FE 3368,-34.587468,-58.412707,Vidt,Supermercado
102151,10,2,MARKET,INC S.A.,AR-C,CIUDAD AUTONOMA DE BUENOS AIRES,AV. RIVADAVIA 2243,-34.609491,-58.398323,Uriburu,Supermercado
102154,10,2,MARKET,INC S.A.,AR-B,LANUS,AV. HIPOLITO YRIGOYEN 4435,-34.706014,-58.3919,Lanús,Supermercado
102165,10,2,MARKET,INC S.A.,AR-U,PUERTO MADRYN,28 DE JULIO 136,-42.766295,-65.035411,Puerto Madryn II,Supermercado
102167,10,2,MARKET,INC S.A.,AR-Y,JUJUY,BALCARCE 408,-24.184117,-65.305676,Jujuy I,Hipermercado
102168,10,2,MARKET,INC S.A.,AR-Y,JUJUY,AV. 19 DE ABRIL 779,-24.18892,-65.303701,Jujuy II,Supermercado
102176,10,2,MARKET,INC S.A.,AR-T,SAN MIGUEL DE TUCUMAN,24 DE SEPTIEMBRE 653,-26.830652,-65.206887,Tucumán I,Supermercado
102177,10,2,MARKET,INC S.A.,AR-T,SAN MIGUEL DE TUCUMAN,SAN MARTIN 344,-26.830278000000003,-65.20201,Tucumán II,Supermercado
102181,10,2,MARKET,INC S.A.,AR-E,PARANA,SANTA FE 606,-31.722868,-60.529162,Parana Parque,Supermercado
102182,10,2,MARKET,INC S.A.,AR-C,CIUDAD AUTONOMA DE BUENOS AIRES,JURAMENTO 2971,-34.5651,-58.462056,Juramento,Supermercado
102184,10,2,MARKET,INC S.A.,AR-L,SANTA ROSA,SPINETTO 1230,-36.604293,-64.280899,Santa Rosa II,Supermercado
102187,10,2,MARKET,INC S.A.,AR-B,ESCOBAR,GELVES 530,-34.344292,-58.78936899999999,Escobar,Supermercado
102189,10,2,MARKET,INC S.A.,AR-C,CIUDAD AUTONOMA DE BUENOS AIRES,AV. CORRIENTES 1160,-34.603902000000005,-58.383077,Av. Corrientes,Supermercado
102191,10,2,MARKET,INC S.A.,AR-B,MAR DEL PLATA,CORDOBA 1830,-38.000667,-57.547721,Mar del Plata III,Supermercado
102195,10,2,MARKET,INC S.A.,AR-C,CIUDAD AUTONOMA DE BUENOS AIRES,OLAZABAL 4734,-34.574379,-58.482128,Olazabal,Supermercado
102198,10,2,MARKET,INC S.A.,AR-C,CIUDAD AUTONOMA DE BUENOS AIRES,AV. CABILDO 3190,-34.553168,-58.46576999999999,Núñez,Supermercado
102201,10,2,MARKET,INC S.A.,AR-B,CARAPACHAY,INDEPENDENCIA 3067,-34.527628,-58.535824,Carapachay,Supermercado
102202,10,2,MARKET,INC S.A.,AR-B,SAN ISIDRO,AV. JUAN SEGUNDO FERNANDEZ 1235,-34.480984,-58.553074,San Isidro La Florida,Supermercado
102203,10,2,MARKET,INC S.A.,AR-B,CHILAVERT,LACROZE 5910,-34.541198,-58.563095,Chilavert,Supermercado
102205,10,2,MARKET,INC S.A.,AR-B,CIUDAD JARDIN DEL PALOMAR,DE LOS CEIBOS 233,-34.603431,-58.592464,Palomar,Supermercado
102206,10,2,MARKET,INC S.A.,AR-C,CIUDAD AUTONOMA DE BUENOS AIRES,BERUTI 2951,-34.590140000000005,-58.405533,Barrio Norte,Hipermercado
102208,10,2,MARKET,INC S.A.,AR-B,CAMPANA,AV. MITRE 1085,-34.162738,-58.965513,Campana Centro,Supermercado
102209,10,2,MARKET,INC S.A.,AR-B,MARTINEZ,AV. DEL LIBERTADOR 13060,-34.49027,-58.484964,Martinez (Libertador),Supermercado
102211,10,2,MARKET,INC S.A.,AR-B,MARTINEZ,SAENZ VALIENTE 206,-34.487198,-58.505871,Martínez (Italia),Hipermercado
102212,10,2,MARKET,INC S.A.,AR-B,VILLA BALLESTER,AMERICA 4006,-34.55729,-58.550437,Malaver - Villa Ballester,Supermercado
102215,10,2,MARKET,INC S.A.,AR-C,CIUDAD AUTONOMA DE BUENOS AIRES,AV. RAUL SCALABRINI ORTIZ 3128,-34.58052,-58.410332,Palermo Canning,Supermercado
102216,10,2,MARKET,INC S.A.,AR-B,VICENTE LOPEZ,AV. MAIPU 940,-34.529452,-58.48077900000001,Vicente López - Maipú,Hipermercado
102218,10,2,MARKET,INC S.A.,AR-B,HURLINGHAM,AV. VERGARA 4121,-34.591972,-58.636447,Hurlingham,Hipermercado
102221,10,2,MARKET,INC S.A.,AR-B,TIGRE,ALMIRANTE BROWN 371,-34.433161,-58.565723,Tigre,Supermercado
102226,10,2,MARKET,INC S.A.,AR-B,MARTINEZ,SANTA FE 2349,-34.492689,-58.499192,Martínez (Edison),Supermercado
102228,10,2,MARKET,INC S.A.,AR-C,CIUDAD AUTONOMA DE BUENOS AIRES,AV. ELCANO 3380,-34.575419000000004,-58.45973100000001,Colegiales (Elcano),Hipermercado
102237,10,2,MARKET,INC S.A.,AR-C,CIUDAD AUTONOMA DE BUENOS AIRES,AV. NAZCA 2951,-34.602094,-58.489299,Villa del Parque,Supermercado
102243,10,2,MARKET,INC S.A.,AR-E,PARANA,SAN JUAN 609,-31.726740000000003,-60.524157,Paraná (San Juan),Supermercado
102244,10,2,MARKET,INC S.A.,AR-E,PARANA,HIPOLITO YRIGOYEN 223,-31.737845,-60.52474100000001,Paraná (Yrigoyen),Supermercado
102249,10,2,MARKET,INC S.A.,AR-E,PARANA,AV. DE LAS AMERICAS 1731,-31.748447,-60.52494599999999,Paraná (Avenida de las Américas),Supermercado
102252,10,2,MARKET,INC S.A.,AR-B,ACASSUSO,AV. DEL LIBERTADOR 14893,-34.476587,-58.497758,Acassuso,Supermercado
102253,10,2,MARKET,INC S.A.,AR-B,OLIVOS,AV. MAIPU 3393,-34.504534,-58.49384300000001,Olivos (Maipú),Supermercado
102254,10,2,MARKET,INC S.A.,AR-B,SAN ISIDRO,DIEGO CARMAN 451,-34.495405,-58.545723,San Isidro - D. Carman,Supermercado
102255,10,2,MARKET,INC S.A.,AR-B,PERGAMINO,BVARD. ROCHA 1352,-33.902945,-60.568849,Pergamino II,Supermercado
102256,10,2,MARKET,INC S.A.,AR-B,SAN NICOLAS,AV. MORENO 10,-33.335962,-60.222474,San Nicolás II,Supermercado
102258,10,2,MARKET,INC S.A.,AR-C,CIUDAD AUTONOMA DE BUENOS AIRES,AV. MOSCONI 2861,-34.585933000000004,-58.501809,Villa Pueyrredon,Supermercado
102262,10,2,MARKET,INC S.A.,AR-E,PARANA,GRAL. JOSE MARIA PAZ 1303,-31.741747,-60.541261,Parana J M Paz,Supermercado
102263,10,2,MARKET,INC S.A.,AR-E,PARANA,SANTOS DOMINGUEZ 808,-31.754009000000003,-60.511242,Parana Rocamora,Supermercado
102264,10,2,MARKET,INC S.A.,AR-E,PARANA,MEXICO 404,-31.725619,-60.53368100000001,Paraná (México),Supermercado
102266,10,2,MARKET,INC S.A.,AR-E,PARANA,AV. DON BOSCO NONE,-31.734176,-60.507412,Paraná (Don Bosco),Supermercado
102272,10,2,MARKET,INC S.A.,AR-B,SAN FERNANDO,AV. PDTE. TTE. GRAL. J. D. PERON 1350,-34.441795,-58.553738,San Fernando II,Supermercado
102277,10,2,MARKET,INC S.A.,AR-C,CIUDAD AUTONOMA DE BUENOS AIRES,AV. RAUL SCALABRINI ORTIZ 1840,-34.589507,-58.422997,Palermo Soler,Supermercado
102278,10,2,MARKET,INC S.A.,AR-B,JOSE LEON SUAREZ,ROSAS 1271,-34.518899,-58.569421,José León Suárez,Supermercado
102282,10,2,MARKET,INC S.A.,AR-M,MENDOZA,AV. COLON 324,-32.894355,-68.845102,Mendoza Colón,Supermercado
102283,10,2,MARKET,INC S.A.,AR-M,MENDOZA,AV. LAS HERAS 306,-32.885582,-68.84228,Mendoza Las Heras,Supermercado
102285,10,2,MARKET,INC S.A.,AR-M,MENDOZA,AV. SAN MARTIN 1333,-32.888123,-68.838726,Mendoza Tunuyán,Supermercado
102286,10,2,MARKET,INC S.A.,AR-M,TUPUNGATO,AVENIDA BELGRANO 1170,-33.364039,-69.144079,Mendoza Tupungato,Supermercado
102287,10,2,MARKET,INC S.A.,AR-M,MENDOZA,SUIPACHA 556,-32.877586,-68.855222,Mendoza Suipacha,Supermercado
102288,10,2,MARKET,INC S.A.,AR-M,MENDOZA,JORGE A. CALLE 631,-32.868658,-68.852646,Mendoza Sexta,Supermercado
102289,10,2,MARKET,INC S.A.,AR-M,LUJAN DE CUYO,AZCUENAGA 51,-33.036676,-68.878842,Mendoza Luján de Cuyo,Supermercado
102290,10,2,MARKET,INC S.A.,AR-M,GODOY CRUZ,BELTRAN 2078,-32.903094,-68.852428,Mendoza Bombal,Supermercado
102293,10,2,MARKET,INC S.A.,AR-T,SAN MIGUEL DE TUCUMAN,25 DE MAYO 346,-26.826229,-65.203784,Tucumán IV,Supermercado
102295,10,2,MARKET,INC S.A.,AR-X,ALTO VERDE,BVARD. GRANADEROS 2906,-31.374529,-64.21385500000001,Córdoba Granaderos,Supermercado
102296,10,2,MARKET,INC S.A.,AR-B,OLAVARRIA,AV. DEL VALLE 4379,-36.908071,-60.314098,Olavarría II,Supermercado
102381,10,2,MARKET,INC S.A.,AR-C,CIUDAD AUTONOMA DE BUENOS AIRES,AV. CORDOBA 2529,-34.598762,-58.403084,Recoleta II,Supermercado
102384,10,2,MARKET,INC S.A.,AR-C,CIUDAD AUTONOMA DE BUENOS AIRES,AV. CORRIENTES 5645,-34.595995,-58.44289499999999,Villa Crespo,Supermercado
102385,10,2,MARKET,INC S.A.,AR-C,CIUDAD AUTONOMA DE BUENOS AIRES,AV. INDEPENDENCIA 456,-34.617218,-58.372441,San Telmo,Supermercado
102386,10,2,MARKET,INC S.A.,AR-C,CIUDAD AUTONOMA DE BUENOS AIRES,AV. BELGRANO 1160,-34.613219,-58.382776,Monserrat,Supermercado
102387,10,2,MARKET,INC S.A.,AR-C,CIUDAD AUTONOMA DE BUENOS AIRES,AV. CABILDO 4047,-34.546335,-58.470108,Núñez II,Supermercado
102388,10,2,MARKET,INC S.A.,AR-B,ADROGUE,SEGUI 849,-34.799052,-58.395114,Adrogué,Supermercado
102389,10,2,MARKET,INC S.A.,AR-C,CIUDAD AUTONOMA DE BUENOS AIRES,AV. SANTA FE 5234,-34.575946,-58.433486,Carranza,Supermercado
102390,10,2,MARKET,INC S.A.,AR-C,CIUDAD AUTONOMA DE BUENOS AIRES,AV. RIVADAVIA 5973,-34.623596,-58.449251,Caballito,Supermercado
102490,10,2,MARKET,INC S.A.,AR-C,CIUDAD AUTONOMA DE BUENOS AIRES,AV. CORDOBA 1631,-34.599232,-58.390542,Recoleta I,Supermercado
102491,10,2,MARKET,INC S.A.,AR-C,CIUDAD AUTONOMA DE BUENOS AIRES,AV. MONTES DE OCA 970,-34.639340999999995,-58.374389,Barracas,Supermercado
102510,10,2,MARKET,INC S.A.,AR-C,CIUDAD AUTONOMA DE BUENOS AIRES,AV. DIAZ VELEZ NONE,-34.608489,-58.42161700000001,Almagro,Supermercado
102511,10,2,MARKET,INC S.A.,AR-C,CIUDAD AUTONOMA DE BUENOS AIRES,AV. RIVADAVIA 3221,-34.610492,-58.412303,Once,Supermercado
102512,10,2,MARKET,INC S.A.,AR-B,PILAR,RAMIREZ 43,-34.454772,-58.91015400000001,Pilar Super,Supermercado
102514,10,2,MARKET,INC S.A.,AR-C,CIUDAD AUTONOMA DE BUENOS AIRES,BEIRO 3342,-34.598696999999994,-58.500132,Villa del Parque,Supermercado
102515,10,2,MARKET,INC S.A.,AR-C,CIUDAD AUTONOMA DE BUENOS AIRES,AV. FCO. BEIRO 5204,-34.6132,-58.523415,Devoto,Supermercado
102516,10,2,MARKET,INC S.A.,AR-B,SAN ISIDRO,COSME BECCAR 437,-34.470353,-58.514687,San Isidro Súper,Supermercado
102517,10,2,MARKET,INC S.A.,AR-C,CIUDAD AUTONOMA DE BUENOS AIRES,AV. RIVADAVIA 2039,-34.609227000000004,-58.395539,Congreso,Supermercado
102518,10,2,MARKET,INC S.A.,AR-B,OLIVOS,AV. MAIPU 2960,-34.508824,-58.492046,Olivos,Supermercado
102519,10,2,MARKET,INC S.A.,AR-C,CIUDAD AUTONOMA DE BUENOS AIRES,AV. FEDERICO LACROZE 3117,-34.577279,-58.449064,Conde,Supermercado
102601,10,2,MARKET,INC S.A.,AR-T,YERBA BUENA,AV. ACONQUIJA 1591,-26.8129,-65.292314,Yerba Buena,Supermercado
10262,10,2,MARKET,INC S.A.,AR-B,PILAR,PANAMERICANA RAMAL PILAR NONE,-34.449813,-58.916319,Champagnat,Hipermercado
103196,10,3,EXPRESS,INC S.A.,AR-C,CIUDAD AUTONOMA DE BUENOS AIRES,AV. CORRIENTES 3651,-34.603633,-58.416192,Corrientes 3651,Supermercado
103199,10,3,EXPRESS,INC S.A.,AR-C,CIUDAD AUTONOMA DE BUENOS AIRES,AV. CORDOBA 1439,-34.599262,-58.387552,Av. Córdoba 1439,Autoservicio
103200,10,3,EXPRESS,INC S.A.,AR-C,CIUDAD AUTONOMA DE BUENOS AIRES,AV. RIVADAVIA 8421,-34.633706,-58.482029,Av. Rivadavia 8421,Autoservicio
103213,10,3,EXPRESS,INC S.A.,AR-C,CIUDAD AUTONOMA DE BUENOS AIRES,PARAGUAY 919,-34.597675,-58.380133,Paraguay 919,Autoservicio
103242,10,3,EXPRESS,INC S.A.,AR-C,CIUDAD AUTONOMA DE BUENOS AIRES,AV. NAZCA 25,-34.630371999999994,-58.469692,Av. Nazca 25,Supermercado
103247,10,3,EXPRESS,INC S.A.,AR-C,CIUDAD AUTONOMA DE BUENOS AIRES,AV. LA PLATA 430,-34.619772,-58.428125,Av. La Plata 430,Supermercado
103250,10,3,EXPRESS,INC S.A.,AR-C,CIUDAD AUTONOMA DE BUENOS AIRES,CARLOS PELLEGRINI 587,-34.601524,-58.380994,Carlos Pellegrini 587,Supermercado
103251,10,3,EXPRESS,INC S.A.,AR-C,CIUDAD AUTONOMA DE BUENOS AIRES,ARCE 728,-34.568676,-58.434871,Arce 728,Supermercado
103260,10,3,EXPRESS,INC S.A.,AR-C,CIUDAD AUTONOMA DE BUENOS AIRES,AV. GRAL. LAS HERAS 2397,-34.586508,-58.398127,Av. Gral. Las Heras 2397,Autoservicio
103265,10,3,EXPRESS,INC S.A.,AR-C,CIUDAD AUTONOMA DE BUENOS AIRES,AV. ANGEL GALLARDO 30,-34.602404,-58.432602,Angel Gallardo 30,Autoservicio
103291,10,3,EXPRESS,INC S.A.,AR-C,CIUDAD AUTONOMA DE BUENOS AIRES,PIEDRAS 383,-34.612572,-58.377673,Piedras 383,Autoservicio
103298,10,3,EXPRESS,INC S.A.,AR-C,CIUDAD AUTONOMA DE BUENOS AIRES,FORMOSA 565,-34.621316,-58.436261,Formosa 565,Autoservicio
103299,10,3,EXPRESS,INC S.A.,AR-C,CIUDAD AUTONOMA DE BUENOS AIRES,ARENALES 975,-34.594016,-58.381012,Arenales 975,Autoservicio
103300,10,3,EXPRESS,INC S.A.,AR-C,CIUDAD AUTONOMA DE BUENOS AIRES,GRAL. DEHEZA 2239,-34.540539,-58.47205200000001,Gral Deheza 2239,Autoservicio
103301,10,3,EXPRESS,INC S.A.,AR-C,CIUDAD AUTONOMA DE BUENOS AIRES,AV. PUEYRREDON 2464,-34.585915,-58.394398,Av. Pueyrredón 2464,Autoservicio
103302,10,3,EXPRESS,INC S.A.,AR-C,CIUDAD AUTONOMA DE BUENOS AIRES,ESMERALDA 823,-34.598622,-58.378291,Esmeralda 823,Autoservicio
103303,10,3,EXPRESS,INC S.A.,AR-C,CIUDAD AUTONOMA DE BUENOS AIRES,TALCAHUANO 841,-34.598783000000005,-58.385461,Talcahuano 841,Autoservicio
103304,10,3,EXPRESS,INC S.A.,AR-C,CIUDAD AUTONOMA DE BUENOS AIRES,SUIPACHA 726,-34.599822,-58.379713,Suipacha 726,Autoservicio
103306,10,3,EXPRESS,INC S.A.,AR-C,CIUDAD AUTONOMA DE BUENOS AIRES,FRAY JUSTO STA. MARIA DE ORO 2709,-34.577198,-58.42235600000001,Fray Justo Santa María de Oro 2709,Autoservicio
103307,10,3,EXPRESS,INC S.A.,AR-C,CIUDAD AUTONOMA DE BUENOS AIRES,AV. GRAL. LAS HERAS 1936,-34.590737,-58.393414,Av. Gral. Las Heras 1936,Autoservicio
103308,10,3,EXPRESS,INC S.A.,AR-C,CIUDAD AUTONOMA DE BUENOS AIRES,MAIPU 171,-34.606155,-58.37645300000001,Maipú 171,Autoservicio
103309,10,3,EXPRESS,INC S.A.,AR-C,CIUDAD AUTONOMA DE BUENOS AIRES,CAMPANA 3050,-34.602612,-58.49646,Campana 3050,Autoservicio
103310,10,3,EXPRESS,INC S.A.,AR-C,CIUDAD AUTONOMA DE BUENOS AIRES,CHIVILICOY 3840,-34.600568,-58.511327,Chivilicoy 3840,Autoservicio
103311,10,3,EXPRESS,INC S.A.,AR-C,CIUDAD AUTONOMA DE BUENOS AIRES,MONROE 2771,-34.560168,-58.46318,Monroe 2771,Autoservicio
103312,10,3,EXPRESS,INC S.A.,AR-C,CIUDAD AUTONOMA DE BUENOS AIRES,CERVINO 4634,-34.575307,-58.422856,Cerviño 4634,Autoservicio
103313,10,3,EXPRESS,INC S.A.,AR-C,CIUDAD AUTONOMA DE BUENOS AIRES,MONTANESES 2267,-34.555966,-58.45004599999999,Montañeses 2267,Autoservicio
103314,10,3,EXPRESS,INC S.A.,AR-C,CIUDAD AUTONOMA DE BUENOS AIRES,AV. SEGUROLA 2344 2344,-34.614787,-58.505674,Segurola 2344,Autoservicio
103315,10,3,EXPRESS,INC S.A.,AR-C,CIUDAD AUTONOMA DE BUENOS AIRES,JOSE PEDRO VARELA 3191,-34.598396,-58.497333,Jose Pedro Varela 3191,Autoservicio
103316,10,3,EXPRESS,INC S.A.,AR-C,CIUDAD AUTONOMA DE BUENOS AIRES,RAMON FALCON 2402,-34.630139,-58.462242,Ramon Falcón 2402,Autoservicio
103317,10,3,EXPRESS,INC S.A.,AR-C,CIUDAD AUTONOMA DE BUENOS AIRES,ANCHORENA 1253,-34.594766,-58.406363,Anchorena 1253,Autoservicio
103318,10,3,EXPRESS,INC S.A.,AR-C,CIUDAD AUTONOMA DE BUENOS AIRES,ARROYO 859,-34.591563,-58.379252,Arroyo 859,Autoservicio
103320,10,3,EXPRESS,INC S.A.,AR-C,CIUDAD AUTONOMA DE BUENOS AIRES,SUCRE 2480,-34.564492,-58.45586899999999,Sucre 2480,Autoservicio
103321,10,3,EXPRESS,INC S.A.,AR-C,CIUDAD AUTONOMA DE BUENOS AIRES,CANGALLO 33,-34.6061,-58.431299,Cangallo 33,Autoservicio
103322,10,3,EXPRESS,INC S.A.,AR-C,CIUDAD AUTONOMA DE BUENOS AIRES,DEL CARRIL 3210,-34.593274,-58.502323,Del Carril 3210,Autoservicio
103323,10,3,EXPRESS,INC S.A.,AR-C,CIUDAD AUTONOMA DE BUENOS AIRES,MONTES DE OCA 304,-34.632222,-58.375998,Montes de Oca 304,Autoservicio
103324,10,3,EXPRESS,INC S.A.,AR-C,CIUDAD AUTONOMA DE BUENOS AIRES,DIRECTORIO 1766,-34.631045,-58.452608,Directorio 1766,Autoservicio
103325,10,3,EXPRESS,INC S.A.,AR-C,CIUDAD AUTONOMA DE BUENOS AIRES,VIDAL 2357,-34.561751,-58.462283,Vidal 2357,Autoservicio
103326,10,3,EXPRESS,INC S.A.,AR-C,CIUDAD AUTONOMA DE BUENOS AIRES,AV. ALVAREZ JONTE 4872,-34.620277,-58.506577,Jonte 4872,Autoservicio
103327,10,3,EXPRESS,INC S.A.,AR-C,CIUDAD AUTONOMA DE BUENOS AIRES,AV. GRAL. LAS HERAS 2643,-34.584822,-58.40004,Las Heras 2643,Autoservicio
103328,10,3,EXPRESS,INC S.A.,AR-C,CIUDAD AUTONOMA DE BUENOS AIRES,GODOY CRUZ 2793,-34.577797,-58.42433199999999,Godoy Cruz 2793,Autoservicio
103329,10,3,EXPRESS,INC S.A.,AR-C,CIUDAD AUTONOMA DE BUENOS AIRES,LAVALLE 1749,-34.603041999999995,-58.391768000000006,Lavalle 1749,Autoservicio
103330,10,3,EXPRESS,INC S.A.,AR-C,CIUDAD AUTONOMA DE BUENOS AIRES,FITZ ROY 2470,-34.577794,-58.429157,Fitz Roy 2470,Autoservicio
103331,10,3,EXPRESS,INC S.A.,AR-C,CIUDAD AUTONOMA DE BUENOS AIRES,CHARCAS 3171,-34.592437,-58.41086899999999,Charcas 3171,Autoservicio
103332,10,3,EXPRESS,INC S.A.,AR-C,CIUDAD AUTONOMA DE BUENOS AIRES,BILLINGHURST 1380,-34.593956,-58.41291,Billinghurst 1380,Autoservicio
103334,10,3,EXPRESS,INC S.A.,AR-C,CIUDAD AUTONOMA DE BUENOS AIRES,PARAGUAY 521,-34.597351,-58.374515,Paraguay 521,Autoservicio
103335,10,3,EXPRESS,INC S.A.,AR-C,CIUDAD AUTONOMA DE BUENOS AIRES,CUBA 2776,-34.554653,-58.46029,Cuba 2776,Autoservicio
103336,10,3,EXPRESS,INC S.A.,AR-C,CIUDAD AUTONOMA DE BUENOS AIRES,CHARCAS 3315,-34.591312,-58.412544,Charcas 3315 II,Autoservicio
103337,10,3,EXPRESS,INC S.A.,AR-C,CIUDAD AUTONOMA DE BUENOS AIRES,AV. FEDERICO LACROZE 2566,-34.572189,-58.446058,Lacroze 2566,Autoservicio
103338,10,3,EXPRESS,INC S.A.,AR-C,CIUDAD AUTONOMA DE BUENOS AIRES,TUCUMAN 831,-34.601177,-58.378613,Tucumán 831,Autoservicio
103339,10,3,EXPRESS,INC S.A.,AR-C,CIUDAD AUTONOMA DE BUENOS AIRES,AV. DE LOS INCAS 4466,-34.581140000000005,-58.473713,Los Incas 4466,Supermercado
103340,10,3,EXPRESS,INC S.A.,AR-C,CIUDAD AUTONOMA DE BUENOS AIRES,ORTEGA Y GASSET 1876,-34.570715,-58.43287,Ortega y Gaset 1876,Autoservicio
103341,10,3,EXPRESS,INC S.A.,AR-C,CIUDAD AUTONOMA DE BUENOS AIRES,VIAMONTE 351,-34.599672,-58.372053,Viamonte 351,Supermercado
103343,10,3,EXPRESS,INC S.A.,AR-C,CIUDAD AUTONOMA DE BUENOS AIRES,AMENABAR 1187,-34.569917,-58.45046899999999,Amenábar 1187,Autoservicio
103344,10,3,EXPRESS,INC S.A.,AR-C,CIUDAD AUTONOMA DE BUENOS AIRES,MARCELO T. DE ALVEAR 2251,-34.596862,-58.399571,M. T. de Alvear 2251,Autoservicio
103345,10,3,EXPRESS,INC S.A.,AR-C,CIUDAD AUTONOMA DE BUENOS AIRES,AV. PUEYRREDON 672,-34.602287,-58.405074,Pueyrredón 672,Autoservicio
103346,10,3,EXPRESS,INC S.A.,AR-C,CIUDAD AUTONOMA DE BUENOS AIRES,SUAREZ 1599,-34.63841,-58.373366,Suárez 1599,Autoservicio
103347,10,3,EXPRESS,INC S.A.,AR-C,CIUDAD AUTONOMA DE BUENOS AIRES,JOSA ANDRES PACHECO DE MELO 2648,-34.586853999999995,-58.401466000000006,P. de Melo 2648,Autoservicio
103348,10,3,EXPRESS,INC S.A.,AR-C,CIUDAD AUTONOMA DE BUENOS AIRES,AV. RIVADAVIA 3421,-34.610752000000005,-58.414782,Rivadavia 3421,Autoservicio
103349,10,3,EXPRESS,INC S.A.,AR-C,CIUDAD AUTONOMA DE BUENOS AIRES,AV. CABILDO 34,-34.574828000000004,-58.436126,Cabildo 34,Autoservicio
103350,10,3,EXPRESS,INC S.A.,AR-C,CIUDAD AUTONOMA DE BUENOS AIRES,HUMBOLDT 1982,-34.582757,-58.433094,Humboldt 1982,Autoservicio
103351,10,3,EXPRESS,INC S.A.,AR-C,CIUDAD AUTONOMA DE BUENOS AIRES,ECHEVERRIA 2067,-34.560973,-58.452616000000006,Echeverría 2067,Autoservicio
103352,10,3,EXPRESS,INC S.A.,AR-C,CIUDAD AUTONOMA DE BUENOS AIRES,RODRIGUEZ PENA 1185,-34.595055,-58.392,Rodríguez Peña 1185,Autoservicio
103353,10,3,EXPRESS,INC S.A.,AR-C,CIUDAD AUTONOMA DE BUENOS AIRES,TALCAHUANO 467,-34.60322,-58.385088,Talcahuano 467,Autoservicio
103354,10,3,EXPRESS,INC S.A.,AR-C,CIUDAD AUTONOMA DE BUENOS AIRES,PARANA 1053,-34.59632,-58.388332,Paraná 1053,Autoservicio
103355,10,3,EXPRESS,INC S.A.,AR-C,CIUDAD AUTONOMA DE BUENOS AIRES,AV. PUEYRREDON 1054,-34.59788,-58.40378199999999,Pueyrredón 1054,Autoservicio
103356,10,3,EXPRESS,INC S.A.,AR-C,CIUDAD AUTONOMA DE BUENOS AIRES,AV. CALLAO 1289,-34.594087,-58.393061,Callao 1289,Autoservicio
103357,10,3,EXPRESS,INC S.A.,AR-C,CIUDAD AUTONOMA DE BUENOS AIRES,SARMIENTO 1592,-34.605506,-58.38923000000001,Sarmiento 1592,Autoservicio
103360,10,3,EXPRESS,INC S.A.,AR-C,CIUDAD AUTONOMA DE BUENOS AIRES,AV. DE LOS INCAS 5174,-34.586703,-58.481354,Los Incas 5174,Autoservicio
103361,10,3,EXPRESS,INC S.A.,AR-C,CIUDAD AUTONOMA DE BUENOS AIRES,MOLDES 1718,-34.567226,-58.45653100000001,Moldes 1718,Autoservicio
103362,10,3,EXPRESS,INC S.A.,AR-C,CIUDAD AUTONOMA DE BUENOS AIRES,AV. DIRECTORIO 1063,-34.629168,-58.442438,Directorio 1063,Autoservicio
103363,10,3,EXPRESS,INC S.A.,AR-C,CIUDAD AUTONOMA DE BUENOS AIRES,AV. INDEPENDENCIA 1833,-34.618097,-58.392208,Independencia 1833,Autoservicio
103364,10,3,EXPRESS,INC S.A.,AR-C,CIUDAD AUTONOMA DE BUENOS AIRES,CIUDAD DE LA PAZ 353,-34.573878,-58.442051,Ciudad de la Paz 353,Autoservicio
103365,10,3,EXPRESS,INC S.A.,AR-C,CIUDAD AUTONOMA DE BUENOS AIRES,NAZCA 1944,-34.612145,-58.480997,Nazca 1944,Autoservicio
103367,10,3,EXPRESS,INC S.A.,AR-C,CIUDAD AUTONOMA DE BUENOS AIRES,ESTADO DE ISRAEL 4309,-34.597862,-58.426805,Estado de Israel 4309,Autoservicio
103368,10,3,EXPRESS,INC S.A.,AR-C,CIUDAD AUTONOMA DE BUENOS AIRES,CUBA 2919,-34.553375,-58.462109,Cuba 2919,Autoservicio
103369,10,3,EXPRESS,INC S.A.,AR-C,CIUDAD AUTONOMA DE BUENOS AIRES,AV. CASEROS 2864,-34.636786,-58.40316899999999,Caseros 2864,Autoservicio
103370,10,3,EXPRESS,INC S.A.,AR-C,CIUDAD AUTONOMA DE BUENOS AIRES,AV. JUAN BAUTISTA ALBERDI 371,-34.622738,-58.43315,J. Bautista Alberdi 371,Autoservicio
103371,10,3,EXPRESS,INC S.A.,AR-C,CIUDAD AUTONOMA DE BUENOS AIRES,OLAZABAL 5483,-34.579005,-58.49039300000001,Olazábal 5483,Autoservicio
103373,10,3,EXPRESS,INC S.A.,AR-C,CIUDAD AUTONOMA DE BUENOS AIRES,11 DE SEPTIEMBRE 3910,-34.543233,-58.463148,11 de Septiembre 3910,Autoservicio
103374,10,3,EXPRESS,INC S.A.,AR-C,CIUDAD AUTONOMA DE BUENOS AIRES,DR. ROMULO NAON 2401,-34.567331,-58.47278000000001,Rómulo Naón 2401,Autoservicio
103375,10,3,EXPRESS,INC S.A.,AR-C,CIUDAD AUTONOMA DE BUENOS AIRES,ESMERALDA 428,-34.603219,-58.37811600000001,Esmeralda 428,Autoservicio
103376,10,3,EXPRESS,INC S.A.,AR-C,CIUDAD AUTONOMA DE BUENOS AIRES,ALVAREZ JONTE 3709,-34.613367,-58.493678,Jonte 3709,Autoservicio
103378,10,3,EXPRESS,INC S.A.,AR-C,CIUDAD AUTONOMA DE BUENOS AIRES,BILLINGHURST 1876,-34.588997,-58.40905,Billinghurst 1876,Autoservicio
103379,10,3,EXPRESS,INC S.A.,AR-C,CIUDAD AUTONOMA DE BUENOS AIRES,MAIPU 26,-34.60788400000001,-58.37647,Maipú 26,Autoservicio
103380,10,3,EXPRESS,INC S.A.,AR-C,CIUDAD AUTONOMA DE BUENOS AIRES,OTAMENDI 454,-34.611146999999995,-58.433683,Otamendi 454,Autoservicio
103391,10,3,EXPRESS,INC S.A.,AR-C,CIUDAD AUTONOMA DE BUENOS AIRES,AV. CABILDO 2865,-34.555786,-58.462146,Cabildo 2865,Autoservicio
103392,10,3,EXPRESS,INC S.A.,AR-C,CIUDAD AUTONOMA DE BUENOS AIRES,JORGE LUIS BORGES 2463,-34.582215999999995,-58.421027,J. L. Borges 2463-65,Supermercado
103394,10,3,EXPRESS,INC S.A.,AR-C,CIUDAD AUTONOMA DE BUENOS AIRES,AV. SANTA FE 4489,-34.579302,-58.424094,Santa Fe 4489-91,Autoservicio
103395,10,3,EXPRESS,INC S.A.,AR-C,CIUDAD AUTONOMA DE BUENOS AIRES,AV. FEDERICO LACROZE 4106,-34.585892,-58.454272,Federico Lacroze 4106,Autoservicio
103396,10,3,EXPRESS,INC S.A.,AR-C,CIUDAD AUTONOMA DE BUENOS AIRES,AV. SAN MARTIN 2289,-34.604107,-58.459865,San Martín 2289,Autoservicio
103397,10,3,EXPRESS,INC S.A.,AR-C,CIUDAD AUTONOMA DE BUENOS AIRES,AV. CORRIENTES 5980,-34.593559,-58.44566800000001,Corrientes 5980,Autoservicio
103398,10,3,EXPRESS,INC S.A.,AR-C,CIUDAD AUTONOMA DE BUENOS AIRES,AV. RIVADAVIA 9436,-34.637117,-58.496795,Av. Rivadavia 9436,Autoservicio
103400,10,3,EXPRESS,INC S.A.,AR-C,CIUDAD AUTONOMA DE BUENOS AIRES,AV. DEL BARCO CENTENERA 177,-34.621665,-58.441093,Centenera 177,Supermercado
103402,10,3,EXPRESS,INC S.A.,AR-C,CIUDAD AUTONOMA DE BUENOS AIRES,AV. CORRIENTES 1974,-34.604525,-58.394643,Av. Corrientes 1974,Autoservicio
103403,10,3,EXPRESS,INC S.A.,AR-C,CIUDAD AUTONOMA DE BUENOS AIRES,AV. SANTA FE 5052,-34.576785,-58.43099399999999,Av. Santa Fe 5052,Autoservicio
103404,10,3,EXPRESS,INC S.A.,AR-C,CIUDAD AUTONOMA DE BUENOS AIRES,AV. MEDRANO 686,-34.602154,-58.420866,Medrano 686,Autoservicio
103405,10,3,EXPRESS,INC S.A.,AR-C,CIUDAD AUTONOMA DE BUENOS AIRES,AV. JUAN BAUTISTA ALBERDI 5719,-34.650644,-58.501702,J. Bautista Alberdi 5719-23,Autoservicio
103406,10,3,EXPRESS,INC S.A.,AR-C,CIUDAD AUTONOMA DE BUENOS AIRES,SALTA 1637,-34.627247,-58.383,Salta 1637-39,Autoservicio
103408,10,3,EXPRESS,INC S.A.,AR-C,CIUDAD AUTONOMA DE BUENOS AIRES,PERU 916,-34.618745000000004,-58.374322,Perú 916,Autoservicio
103409,10,3,EXPRESS,INC S.A.,AR-C,CIUDAD AUTONOMA DE BUENOS AIRES,AV. GAONA 3567,-34.620882,-58.475217,Gaona 3567,Autoservicio
103410,10,3,EXPRESS,INC S.A.,AR-C,CIUDAD AUTONOMA DE BUENOS AIRES,TUCUMAN 2173,-34.602117,-58.398071,Tucumán 2173,Autoservicio
103411,10,3,EXPRESS,INC S.A.,AR-C,CIUDAD AUTONOMA DE BUENOS AIRES,EVA PERON 3479,-34.644703,-58.464687,Eva Perón 3479,Autoservicio
103412,10,3,EXPRESS,INC S.A.,AR-C,CIUDAD AUTONOMA DE BUENOS AIRES,AV. CASEROS 3535,-34.638635,-58.415077,Av. Caseros 3535,Autoservicio
103413,10,3,EXPRESS,INC S.A.,AR-C,CIUDAD AUTONOMA DE BUENOS AIRES,VENEZUELA 4086,-34.617797,-58.42222,Venezuela 4086,Autoservicio
103414,10,3,EXPRESS,INC S.A.,AR-C,CIUDAD AUTONOMA DE BUENOS AIRES,AV. SAN JUAN 3900,-34.626152000000005,-58.420171,Av. San Juan 3900,Autoservicio
103415,10,3,EXPRESS,INC S.A.,AR-C,CIUDAD AUTONOMA DE BUENOS AIRES,AV. SAN JUAN 4351,-34.62676,-58.426136,Av. San Juan 4351,Autoservicio
103416,10,3,EXPRESS,INC S.A.,AR-C,CIUDAD AUTONOMA DE BUENOS AIRES,AV. ALMAFUERTE 880,-34.648144,-58.415872,Av. Almafuerte 880,Autoservicio
103417,10,3,EXPRESS,INC S.A.,AR-C,CIUDAD AUTONOMA DE BUENOS AIRES,FRAY C. RODRIGUEZ 464,-34.624494,-58.464622,Fray C. Rodríguez 464,Autoservicio
103418,10,3,EXPRESS,INC S.A.,AR-C,CIUDAD AUTONOMA DE BUENOS AIRES,CARLOS CALVO 1826,-34.620294,-58.39220400000001,Carlos Calvo 1826,Autoservicio
103419,10,3,EXPRESS,INC S.A.,AR-C,CIUDAD AUTONOMA DE BUENOS AIRES,OLAVARRIA 469,-34.636459,-58.35943,Olavarría 469,Autoservicio
103420,10,3,EXPRESS,INC S.A.,AR-C,CIUDAD AUTONOMA DE BUENOS AIRES,AV. GAONA 1384,-34.608803,-58.448623,Av. Gaona 1384,Autoservicio
103421,10,3,EXPRESS,INC S.A.,AR-C,CIUDAD AUTONOMA DE BUENOS AIRES,AV. BELGRANO 3447,-34.615542,-58.415062,Av. Belgrano 3447,Autoservicio
103422,10,3,EXPRESS,INC S.A.,AR-B,LOMAS DE ZAMORA,MURATURE 2169,-34.707006,-58.438947,Murature 2169,Autoservicio
103423,10,3,EXPRESS,INC S.A.,AR-C,CIUDAD AUTONOMA DE BUENOS AIRES,AV. CASTANARES 4854,-34.667069,-58.472973,Av. Castañares 4854,Autoservicio
103424,10,3,EXPRESS,INC S.A.,AR-B,LUJAN,BARTOLOME MITRE 226,-34.565687,-59.119412,Mitre 226,Autoservicio
103425,10,3,EXPRESS,INC S.A.,AR-B,JOSE LEON SUAREZ,AV. BRIG. GRAL. JUAN MANUEL DE ROSAS 2553,-34.531045,-58.57540899999999,J. M. de Rosas 2553,Autoservicio
103426,10,3,EXPRESS,INC S.A.,AR-C,CIUDAD AUTONOMA DE BUENOS AIRES,MONTANESES 2067,-34.557692,-58.448568,Montañeses 2067,Autoservicio
103427,10,3,EXPRESS,INC S.A.,AR-B,HAEDO,AV. RIVADAVIA 16051,-34.645017,-58.590601,Av. Rivadavia 16051,Supermercado
103428,10,3,EXPRESS,INC S.A.,AR-B,ADOLFO SORDEAUX,ROSARIO 4558,-34.50241,-58.668448,Rosario 4558,Autoservicio
103429,10,3,EXPRESS,INC S.A.,AR-B,VILLA BALLESTER,INDEPENDENCIA 4731,-34.550588,-58.554484,Independencia 4731,Supermercado
103430,10,3,EXPRESS,INC S.A.,AR-B,SAN MARTIN,CARRILLO 2170,-34.575875,-58.538738,Carrillo 2170,Autoservicio
103431,10,3,EXPRESS,INC S.A.,AR-B,VICTORIA,AV. PDTE. TTE. GRAL. J. D. PERON 3283,-34.453474,-58.538348,Av. Perón 3283,Supermercado
103433,10,3,EXPRESS,INC S.A.,AR-B,DEL VISO,AV. ING. EDUARDO MADERO 1050,-34.449447,-58.797046,Madero 1050 Ruta 26,Autoservicio
103435,10,3,EXPRESS,INC S.A.,AR-B,MAQUINISTA SAVIO,RP26 162,-34.408965,-58.771632,Ruta 26 - 162,Autoservicio
103436,10,3,EXPRESS,INC S.A.,AR-B,VILLA ADELINA,PARANA 6543,-34.525713,-58.548663,Paraná 6543,Autoservicio
103437,10,3,EXPRESS,INC S.A.,AR-B,BECCAR,CENTENARIO 1890,-34.461333,-58.527173,Centenario 1890,Supermercado
103438,10,3,EXPRESS,INC S.A.,AR-B,LOS POLVORINES,25 DE MAYO 2650,-34.500302000000005,-58.694886,25 de Mayo 2650,Supermercado
103439,10,3,EXPRESS,INC S.A.,AR-B,CASTELAR,GOB. ARIAS 2420,-34.651086,-58.642884,Gob. Arias 2420,Supermercado
103440,10,3,EXPRESS,INC S.A.,AR-B,TIGRE,AV. CAZON 1336,-34.424942,-58.57798,Av. Cazón 1336,Autoservicio
103441,10,3,EXPRESS,INC S.A.,AR-B,MUNRO,VELEZ SARSFIELD 4690,-34.530695,-58.524438,Vélez Sarsfield 4690,Autoservicio
103442,10,3,EXPRESS,INC S.A.,AR-B,MORON,SARMIENTO 837,-34.648019,-58.620217,Sarmiento 837,Supermercado
103443,10,3,EXPRESS,INC S.A.,AR-B,DON BOSCO,LOS TILOS 711,-34.69753,-58.302113,Los Tilos 711,Autoservicio
103444,10,3,EXPRESS,INC S.A.,AR-B,FLORENCIO VARELA,CAMINO GRAL. BELGRANO 6498,-34.78047,-58.26313,C. General Belgrano 6498,Autoservicio
103445,10,3,EXPRESS,INC S.A.,AR-B,LA PLATA,AV. ARANA 231,-34.85116,-58.07703000000001,Av. Arana 231,Supermercado
103446,10,3,EXPRESS,INC S.A.,AR-B,MONTE CHINGOLO,EVA PERON 4461,-34.729203000000005,-58.352892,Eva Perón 4461,Autoservicio
103447,10,3,EXPRESS,INC S.A.,AR-B,LANUS,CNEL. D ELIA 1649,-34.690746999999995,-58.40845899999999,Cnel. D´Elia 1649,Autoservicio
103448,10,3,EXPRESS,INC S.A.,AR-B,BURZACO,CARLOS PELLEGRINI 844,-34.82818,-58.390159,Carlos Pellegrini 844,Autoservicio
103449,10,3,EXPRESS,INC S.A.,AR-B,FLORENCIO VARELA,SALLARES 151,-34.808046000000004,-58.275429,Sallares 151,Supermercado
103450,10,3,EXPRESS,INC S.A.,AR-B,LONGCHAMPS,BOLIVAR 1343,-34.859301,-58.386273,Bolívar 1343,Autoservicio
103451,10,3,EXPRESS,INC S.A.,AR-B,ALMIRANTE BROWN,GUATAMBU 12,-34.815906,-58.427561,Guatambú 12,Autoservicio
103452,10,3,EXPRESS,INC S.A.,AR-B,EZPELETA,AV. CENTENARIO 5331,-34.753173,-58.238291,Av. Centenario 5331,Autoservicio
103453,10,3,EXPRESS,INC S.A.,AR-B,BANFIELD,MARTIN RODRIGUEZ 1399,-34.735217,-58.433859,Martin Rodríguez 1399,Supermercado
103454,10,3,EXPRESS,INC S.A.,AR-B,QUILMES,AV. MITRE 573,-34.720261,-58.254951,Mitre 573,Autoservicio
103455,10,3,EXPRESS,INC S.A.,AR-B,GERLI,AV. HIPOLITO YRIGOYEN 2323,-34.684697,-58.386613,Av. H.Yrigoyen 2323,Autoservicio
103456,10,3,EXPRESS,INC S.A.,AR-B,REMEDIOS DE ESCALADA,AV. GRAL. JOSE DE SAN MARTIN 3960,-34.710793,-58.422569,San Martín 3960,Autoservicio
103457,10,3,EXPRESS,INC S.A.,AR-B,GLEW,SARMIENTO 72,-34.889129,-58.38527,Sarmiento 72,Supermercado
103458,10,3,EXPRESS,INC S.A.,AR-B,BUDGE,CLAUDIO DE ALAS 2146,-34.720449,-58.462849,Claudio de Alas 2146,Autoservicio
103459,10,3,EXPRESS,INC S.A.,AR-B,LANUS,CAMINO GRAL. BELGRANO 4861,-34.722369,-58.33900500000001,C. General Belgrano 4861,Autoservicio
103460,10,3,EXPRESS,INC S.A.,AR-B,LANUS,EVA PERON 3330,-34.720952000000004,-58.36308100000001,Eva Perón 3330,Autoservicio
103461,10,3,EXPRESS,INC S.A.,AR-B,LOMAS DE ZAMORA,SALTA 160,-34.810018,-58.457241,Salta 160,Autoservicio
103462,10,3,EXPRESS,INC S.A.,AR-B,QUILMES,12 DE OCTUBRE 520,-34.729681,-58.263922,12 de Octubre 520,Autoservicio
103463,10,3,EXPRESS,INC S.A.,AR-B,VALENTIN ALSINA,PRES. TTE. GRAL. J. D. PERON 2640,-34.673516,-58.406289,J. D. Perón 2640,Autoservicio
103464,10,3,EXPRESS,INC S.A.,AR-B,LOMAS DE ZAMORA,AV. EVA PERON 5492,-34.752493,-58.343235,Av. Perón 5492,Autoservicio
103465,10,3,EXPRESS,INC S.A.,AR-B,WILDE,AV. MITRE 6328,-34.704182,-58.316933,Av. Mitre 6328,Supermercado
103466,10,3,EXPRESS,INC S.A.,AR-B,LANUS,29 DE SEPTIEMBRE 1880,-34.706481,-58.38985400000001,29 de septiembre 1880,Autoservicio
103467,10,3,EXPRESS,INC S.A.,AR-B,MORENO,BVARD. A. ALCORTA 2854,-34.650363,-58.791172,Alcorta 2854,Supermercado
103468,10,3,EXPRESS,INC S.A.,AR-B,ISIDRO CASANOVA,JUAN MANUEL DE ROSAS 6956,-34.704435,-58.58295500000001,J. M. de Rosas 6956,Autoservicio
103469,10,3,EXPRESS,INC S.A.,AR-B,SAN MIGUEL,FRAGA 1629,-34.544189,-58.7149,Fraga 1629,Autoservicio
103470,10,3,EXPRESS,INC S.A.,AR-B,VILLA BOSH,EL PAYADOR 5550,-34.588563,-58.573821,El Payador 5550,Supermercado
103471,10,3,EXPRESS,INC S.A.,AR-B,GREGORIO DE LAFERRERE,AV. HONORIO LUQUE 6101,-34.750544,-58.586041,Av. Honorio Luque 6101,Supermercado
103472,10,3,EXPRESS,INC S.A.,AR-B,HURLINGHAM,JAURETCHE 1125,-34.589617,-58.6328,Jauretche 1125,Autoservicio
103473,10,3,EXPRESS,INC S.A.,AR-B,RAMOS MEJIA,9 DE JULIO 46,-34.64876,-58.618429000000006,9 de Julio 46-50,Supermercado
103474,10,3,EXPRESS,INC S.A.,AR-B,MERLO,ECHEVERRI 943,-34.703558,-58.743391,Echeverri 943-951,Autoservicio
103475,10,3,EXPRESS,INC S.A.,AR-B,RAMOS MEJIA,AV. DE MAYO 1832,-34.65939,-58.562079,Av. de Mayo 1832,Autoservicio
103476,10,3,EXPRESS,INC S.A.,AR-B,VILLA CELINA,CHILAVERT 1912,-34.691937,-58.4825,Chilavert 1912,Supermercado
103477,10,3,EXPRESS,INC S.A.,AR-B,LA MATANZA,DR. ENRIQUE SIMON PEREZ 4566,-34.773098,-58.64521800000001,E. Pérez 4566,Supermercado
103478,10,3,EXPRESS,INC S.A.,AR-B,PALOMAR,MISIONES 6572,-34.605397,-58.595,Misiones 6572-74,Autoservicio
103479,10,3,EXPRESS,INC S.A.,AR-B,MERLO,AVENIDA EVA PERON 4215,-34.690047,-58.689142,Avenida Eva Perón 4215,Autoservicio
103480,10,3,EXPRESS,INC S.A.,AR-B,LA MATANZA,AV. CROVARA 875,-34.69683,-58.535934,Av. Crovara 875,Supermercado
103481,10,3,EXPRESS,INC S.A.,AR-B,TAPIALES,BOULOGNE SUR MER 1398,-34.697472999999995,-58.507265,Boulogne Sur Mer 1398,Supermercado
103482,10,3,EXPRESS,INC S.A.,AR-B,SAN ANTONIO DE PADUA,ALEJANDRO SULLIVAN 1597,-34.65725,-58.710554,Sullivan 1597,Autoservicio
103483,10,3,EXPRESS,INC S.A.,AR-B,LA MATANZA,AV. CARLOS CASARES 642,-34.697534000000005,-58.625616,Av. Carlos Casares 642,Supermercado
103484,10,3,EXPRESS,INC S.A.,AR-B,PASO DEL REY,SALVADOR MARIA DEL CARRIL 49,-34.65732,-58.762946,M. del Carril 49,Autoservicio
103485,10,3,EXPRESS,INC S.A.,AR-B,SAN ANTONIO DE PADUA,AV. PDTE. J. D. PERON 23866,-34.665985,-58.699257,Perón 23866,Autoservicio
103486,10,3,EXPRESS,INC S.A.,AR-C,CIUDAD AUTONOMA DE BUENOS AIRES,AV. SAN JUAN 1374,-34.622468,-58.38561600000001,Av. San Juan 1374,Autoservicio
103487,10,3,EXPRESS,INC S.A.,AR-C,CIUDAD AUTONOMA DE BUENOS AIRES,LA RIOJA 2040,-34.635113,-58.405779,La Rioja 2040,Autoservicio
103488,10,3,EXPRESS,INC S.A.,AR-C,CIUDAD AUTONOMA DE BUENOS AIRES,AV. BELGRANO 1562,-34.61368,-58.388254,Av. Belgrano 1562,Autoservicio
103489,10,3,EXPRESS,INC S.A.,AR-C,CIUDAD AUTONOMA DE BUENOS AIRES,AV. CASEROS 2423,-34.635325,-58.396301,Av. Caseros 2423,Autoservicio
103492,10,3,EXPRESS,INC S.A.,AR-C,CIUDAD AUTONOMA DE BUENOS AIRES,PEDRO LOZANO 3150,-34.601074,-58.49460799999999,Pedro Lozano 3150,Autoservicio
103493,10,3,EXPRESS,INC S.A.,AR-C,CIUDAD AUTONOMA DE BUENOS AIRES,CHARCAS 3940,-34.586626,-58.419375,Charcas 3940,Autoservicio
103494,10,3,EXPRESS,INC S.A.,AR-B,GRAND BOURG,FCO. SEGUI 1519,-34.485221,-58.726521,Fco. Seguí 1519,Autoservicio
103495,10,3,EXPRESS,INC S.A.,AR-B,BERAZATEGUI,AVENIDA 14 5072,-34.760264,-58.20663100000001,Avenida 14 5072,Autoservicio
103496,10,3,EXPRESS,INC S.A.,AR-B,EZEIZA,JOSE HERNANDEZ 130,-34.788540999999995,-58.522473,J. Hernandez 130,Autoservicio
103497,10,3,EXPRESS,INC S.A.,AR-B,MERLO,AV. JUAN DOMINGO PERON 25694,-34.665273,-58.728113,Perón 25694,Autoservicio
103498,10,3,EXPRESS,INC S.A.,AR-B,GREGORIO DE LAFERRERE,LURO 6329,-34.751653999999995,-58.583439,Luro 6329,Autoservicio
103499,10,3,EXPRESS,INC S.A.,AR-B,LA MATANZA,AV. CRISTIANIA 1832,-34.697531,-58.601259,Av. Cristianía 1832,Autoservicio
103521,10,3,EXPRESS,INC S.A.,AR-B,3 DE FEBRERO,AV. URQUIZA 4855,-34.605633000000005,-58.564882,Av. Urquiza 4855,Autoservicio
103522,10,3,EXPRESS,INC S.A.,AR-B,LA MATANZA,ARIETA 2850,-34.676217,-58.563547,Arieta 2850,Autoservicio
103524,10,3,EXPRESS,INC S.A.,AR-B,GENERAL RODRIGUEZ,BERNARDO DE IRIGOYEN 746,-34.60819,-58.95356999999999,Bernardo Irigoyen 746,Autoservicio
103525,10,3,EXPRESS,INC S.A.,AR-C,CIUDAD AUTONOMA DE BUENOS AIRES,CRISOLOGO LARRALDE 3721,-34.555471000000004,-58.479994,Crisólogo Larralde 3721,Autoservicio
103526,10,3,EXPRESS,INC S.A.,AR-C,CIUDAD AUTONOMA DE BUENOS AIRES,H. PUEYRREDON 925,-34.609566,-58.443746,H. Pueyrredon 925,Autoservicio
103527,10,3,EXPRESS,INC S.A.,AR-C,CIUDAD AUTONOMA DE BUENOS AIRES,FRAY JUSTO STA. MARIA DE ORO 2121,-34.583171,-58.427612,Oro 2121,Autoservicio
103528,10,3,EXPRESS,INC S.A.,AR-C,CIUDAD AUTONOMA DE BUENOS AIRES,AGUIRRE 236,-34.599810999999995,-58.433801,Aguirre 236,Autoservicio
103529,10,3,EXPRESS,INC S.A.,AR-C,CIUDAD AUTONOMA DE BUENOS AIRES,VIAMONTE 2296,-34.601172,-58.399768,Viamonte 2296,Autoservicio
103530,10,3,EXPRESS,INC S.A.,AR-C,CIUDAD AUTONOMA DE BUENOS AIRES,AV. RIVADAVIA 6074,-34.624687,-58.451248,Rivadavia 6074,Autoservicio
103531,10,3,EXPRESS,INC S.A.,AR-C,CIUDAD AUTONOMA DE BUENOS AIRES,AREVALO 1736,-34.580624,-58.44015,Arévalo 1736,Autoservicio
103532,10,3,EXPRESS,INC S.A.,AR-C,CIUDAD AUTONOMA DE BUENOS AIRES,AV. CABILDO 3722,-34.548849,-58.468561,Cabildo 3722,Autoservicio
103533,10,3,EXPRESS,INC S.A.,AR-C,CIUDAD AUTONOMA DE BUENOS AIRES,ROSARIO 85,-34.618327,-58.429695,Rosario 85,Autoservicio
103534,10,3,EXPRESS,INC S.A.,AR-C,CIUDAD AUTONOMA DE BUENOS AIRES,MARTINIANO LEGUIZAMON 1576,-34.653232,-58.507257,Leguizamon 1576,Autoservicio
103535,10,3,EXPRESS,INC S.A.,AR-C,CIUDAD AUTONOMA DE BUENOS AIRES,MURGUIONDO 4324,-34.677984,-58.474262,Murguiondo 4324,Autoservicio
103536,10,3,EXPRESS,INC S.A.,AR-C,CIUDAD AUTONOMA DE BUENOS AIRES,RICARDO BALBIN 4189,-34.554987,-58.490865,Ricardo Balbín 4189,Autoservicio
103537,10,3,EXPRESS,INC S.A.,AR-C,CIUDAD AUTONOMA DE BUENOS AIRES,CHARCAS 4389,-34.583109,-58.423667,Charcas 4389,Autoservicio
103538,10,3,EXPRESS,INC S.A.,AR-C,CIUDAD AUTONOMA DE BUENOS AIRES,HIPOLITO YRIGOYEN 3254,-34.612364,-58.412625,Hipólito Irigoyen 3254,Autoservicio
103539,10,3,EXPRESS,INC S.A.,AR-C,CIUDAD AUTONOMA DE BUENOS AIRES,DONATO ALVAREZ 837,-34.61632,-58.458185,Donato Álvarez 837,Autoservicio
103540,10,3,EXPRESS,INC S.A.,AR-C,CIUDAD AUTONOMA DE BUENOS AIRES,AV. LEANDRO N. ALEM 432,-34.60257,-58.370466,Leandro Alem 432,Autoservicio
103541,10,3,EXPRESS,INC S.A.,AR-C,CIUDAD AUTONOMA DE BUENOS AIRES,MAIPU 918,-34.59728,-58.376975,Maipú 918,Autoservicio
103542,10,3,EXPRESS,INC S.A.,AR-C,CIUDAD AUTONOMA DE BUENOS AIRES,SEGUROLA 279,-34.631451,-58.485336,Segurola 279,Autoservicio
103543,10,3,EXPRESS,INC S.A.,AR-C,CIUDAD AUTONOMA DE BUENOS AIRES,OLAZABAL 5179,-34.576803000000005,-58.486598,Olazábal 5179,Autoservicio
103544,10,3,EXPRESS,INC S.A.,AR-C,CIUDAD AUTONOMA DE BUENOS AIRES,JUANA MANSO 550,-34.603441,-58.363274,Juana Manso 550,Autoservicio
103545,10,3,EXPRESS,INC S.A.,AR-C,CIUDAD AUTONOMA DE BUENOS AIRES,LIBERTAD 1043,-34.596288,-58.38417800000001,Libertad 1043,Autoservicio
103546,10,3,EXPRESS,INC S.A.,AR-C,CIUDAD AUTONOMA DE BUENOS AIRES,MORENO 1902,-34.612879,-58.39329300000001,Moreno 1902,Autoservicio
103547,10,3,EXPRESS,INC S.A.,AR-C,CIUDAD AUTONOMA DE BUENOS AIRES,AV. DORREGO 851,-34.59142,-58.446921,Dorrego 851,Autoservicio
103548,10,3,EXPRESS,INC S.A.,AR-C,CIUDAD AUTONOMA DE BUENOS AIRES,AV. CONGRESO 5241,-34.570618,-58.491897,Congreso 5241,Autoservicio
103549,10,3,EXPRESS,INC S.A.,AR-C,CIUDAD AUTONOMA DE BUENOS AIRES,SUIPACHA 366,-34.604198,-58.379509,Suipacha 366,Autoservicio
103550,10,3,EXPRESS,INC S.A.,AR-C,CIUDAD AUTONOMA DE BUENOS AIRES,SARMIENTO 3885,-34.605069,-58.419242,Sarmiento 3885,Autoservicio
103551,10,3,EXPRESS,INC S.A.,AR-C,CIUDAD AUTONOMA DE BUENOS AIRES,MONROE 3576,-34.56508,-58.47070400000001,Monroe 3576,Autoservicio
103552,10,3,EXPRESS,INC S.A.,AR-C,CIUDAD AUTONOMA DE BUENOS AIRES,AV. RIVADAVIA 3751,-34.610954,-58.419102,Rivadavia 3751,Autoservicio
103553,10,3,EXPRESS,INC S.A.,AR-C,CIUDAD AUTONOMA DE BUENOS AIRES,CUZCO 135,-34.638023,-58.52760600000001,Cuzco 135,Autoservicio
103554,10,3,EXPRESS,INC S.A.,AR-C,CIUDAD AUTONOMA DE BUENOS AIRES,CHILAVERT 6280,-34.685119,-58.474576,Chilavert 6280,Autoservicio
103555,10,3,EXPRESS,INC S.A.,AR-C,CIUDAD AUTONOMA DE BUENOS AIRES,GUEMES 4159,-34.584804,-58.41901899999999,Güemes 4159,Autoservicio
103556,10,3,EXPRESS,INC S.A.,AR-C,CIUDAD AUTONOMA DE BUENOS AIRES,GRECIA 3595,-34.546306,-58.463162,Grecia 3595,Autoservicio
103557,10,3,EXPRESS,INC S.A.,AR-C,CIUDAD AUTONOMA DE BUENOS AIRES,ARZOBISPO ESPINOSA 1187,-34.6335,-58.37010400000001,Arzobispo Espinosa 1187,Autoservicio
103558,10,3,EXPRESS,INC S.A.,AR-C,CIUDAD AUTONOMA DE BUENOS AIRES,SARMIENTO 345,-34.604167,-58.371478,Sarmiento 345,Autoservicio
103559,10,3,EXPRESS,INC S.A.,AR-C,CIUDAD AUTONOMA DE BUENOS AIRES,TEODORO GARCIA 2310,-34.568295,-58.44445699999999,Teodoro García 2310,Autoservicio
103560,10,3,EXPRESS,INC S.A.,AR-C,CIUDAD AUTONOMA DE BUENOS AIRES,BARTOLOME MITRE 1751,-34.607887,-58.391361,B. Mitre 1751,Autoservicio
103561,10,3,EXPRESS,INC S.A.,AR-C,CIUDAD AUTONOMA DE BUENOS AIRES,AV. ANGEL GALLARDO 940,-34.606964000000005,-58.443773,Ángel Gallardo 940,Autoservicio
103562,10,3,EXPRESS,INC S.A.,AR-C,CIUDAD AUTONOMA DE BUENOS AIRES,SAN MARTIN 620,-34.600814,-58.374107,San Martín 620,Autoservicio
103563,10,3,EXPRESS,INC S.A.,AR-C,CIUDAD AUTONOMA DE BUENOS AIRES,HIDALGO 955,-34.608199,-58.441521,Hidalgo 955,Autoservicio
103565,10,3,EXPRESS,INC S.A.,AR-C,CIUDAD AUTONOMA DE BUENOS AIRES,ECUADOR 932,-34.599281,-58.406195,Ecuador 932,Autoservicio
103566,10,3,EXPRESS,INC S.A.,AR-C,CIUDAD AUTONOMA DE BUENOS AIRES,AV. ALVAREZ THOMAS 1996,-34.578743,-58.469274,Álvarez Thomas 1996,Autoservicio
103568,10,3,EXPRESS,INC S.A.,AR-C,CIUDAD AUTONOMA DE BUENOS AIRES,OLAZABAL 1898,-34.557442,-58.453504,Olazábal 1898,Autoservicio
103569,10,3,EXPRESS,INC S.A.,AR-C,CIUDAD AUTONOMA DE BUENOS AIRES,DEL LIBERTADOR 1140,-34.585727,-58.388055,Del Libertador 1140,Autoservicio
103570,10,3,EXPRESS,INC S.A.,AR-C,CIUDAD AUTONOMA DE BUENOS AIRES,DEFENSA 1400,-34.624098,-58.371153,Defensa 1400,Autoservicio
103571,10,3,EXPRESS,INC S.A.,AR-C,CIUDAD AUTONOMA DE BUENOS AIRES,TACUARI 89,-34.609305,-58.379243,Tacuarí 89,Autoservicio
103572,10,3,EXPRESS,INC S.A.,AR-C,CIUDAD AUTONOMA DE BUENOS AIRES,CENTENERA 1282,-34.634333000000005,-58.435797,Centenera 1282,Autoservicio
103573,10,3,EXPRESS,INC S.A.,AR-C,CIUDAD AUTONOMA DE BUENOS AIRES,AV. CORDOBA 3721,-34.597579,-58.419235,Córdoba 3721,Autoservicio
103574,10,3,EXPRESS,INC S.A.,AR-C,CIUDAD AUTONOMA DE BUENOS AIRES,GARCIA DEL RIO 3166,-34.550187,-58.4766,García del Río 3166,Autoservicio
103575,10,3,EXPRESS,INC S.A.,AR-C,CIUDAD AUTONOMA DE BUENOS AIRES,DIRECTORIO 483,-34.627914000000004,-58.433365,Directorio 483,Autoservicio
103576,10,3,EXPRESS,INC S.A.,AR-C,CIUDAD AUTONOMA DE BUENOS AIRES,NUNEZ 1563,-34.545639,-58.459569,Núñez 1563,Autoservicio
103577,10,3,EXPRESS,INC S.A.,AR-C,CIUDAD AUTONOMA DE BUENOS AIRES,AV. CORDOBA 2038,-34.599869,-58.396275,Av. Córdoba 2038,Autoservicio
103578,10,3,EXPRESS,INC S.A.,AR-C,CIUDAD AUTONOMA DE BUENOS AIRES,AV. CALLAO 678,-34.601159,-58.393041,Callao 678,Autoservicio
103579,10,3,EXPRESS,INC S.A.,AR-C,CIUDAD AUTONOMA DE BUENOS AIRES,AV. ALMIRANTE BROWN 795,-34.631998,-58.3613,Av. Alte. Brown 795,Autoservicio
103580,10,3,EXPRESS,INC S.A.,AR-C,CIUDAD AUTONOMA DE BUENOS AIRES,AV. CORRIENTES 4147,-34.60292800000001,-58.423044,Av. Corrientes 4147,Autoservicio
103581,10,3,EXPRESS,INC S.A.,AR-C,CIUDAD AUTONOMA DE BUENOS AIRES,JUAN MARIA GUTIERREZ 3759,-34.580779,-58.41329200000001,J. M. Gutiérrez 3759,Autoservicio
103582,10,3,EXPRESS,INC S.A.,AR-C,CIUDAD AUTONOMA DE BUENOS AIRES,AV. CONGRESO 4781,-34.567588,-58.486436,Congreso 4781,Autoservicio
103583,10,3,EXPRESS,INC S.A.,AR-C,CIUDAD AUTONOMA DE BUENOS AIRES,AV. DE MAYO 1241,-34.609241,-58.38404499999999,Av. de Mayo 1241,Autoservicio
103584,10,3,EXPRESS,INC S.A.,AR-C,CIUDAD AUTONOMA DE BUENOS AIRES,URQUIZA 648,-34.618004,-58.409207,Urquiza 648,Autoservicio
103585,10,3,EXPRESS,INC S.A.,AR-C,CIUDAD AUTONOMA DE BUENOS AIRES,LIMA 945,-34.619056,-58.381498,Lima 945,Autoservicio
103586,10,3,EXPRESS,INC S.A.,AR-C,CIUDAD AUTONOMA DE BUENOS AIRES,AV. SAN MARTIN 5930,-34.59579,-58.500059,San Martín 5930,Autoservicio
103587,10,3,EXPRESS,INC S.A.,AR-C,CIUDAD AUTONOMA DE BUENOS AIRES,ROJAS 16,-34.620215,-58.44163100000001,Rojas 16,Autoservicio
103588,10,3,EXPRESS,INC S.A.,AR-C,CIUDAD AUTONOMA DE BUENOS AIRES,AV. SAN MARTIN 4685,-34.597497,-58.484575,Av. San Martín 4685,Autoservicio
103589,10,3,EXPRESS,INC S.A.,AR-C,CIUDAD AUTONOMA DE BUENOS AIRES,PERU 487,-34.613625,-58.374702,Perú 487,Autoservicio
103590,10,3,EXPRESS,INC S.A.,AR-C,CIUDAD AUTONOMA DE BUENOS AIRES,PENA 2544,-34.58880300000001,-58.400575,Peña 2544,Autoservicio
103591,10,3,EXPRESS,INC S.A.,AR-C,CIUDAD AUTONOMA DE BUENOS AIRES,TTE. GRAL. J. D. PERON 4177,-34.605878000000004,-58.425651,Tte. Gral. J. D. Perón 4177,Autoservicio
103592,10,3,EXPRESS,INC S.A.,AR-C,CIUDAD AUTONOMA DE BUENOS AIRES,ECHEVERRIA 1420,-34.557057,-58.445842000000006,Echeverría 1420,Autoservicio
103593,10,3,EXPRESS,INC S.A.,AR-C,CIUDAD AUTONOMA DE BUENOS AIRES,ENTRE RIOS 1192,-34.622603000000005,-58.391341,Entre Ríos 1192,Autoservicio
103594,10,3,EXPRESS,INC S.A.,AR-C,CIUDAD AUTONOMA DE BUENOS AIRES,INCLAN 2502,-34.629844,-58.39965400000001,Inclan 2502,Autoservicio
103595,10,3,EXPRESS,INC S.A.,AR-C,CIUDAD AUTONOMA DE BUENOS AIRES,COSQUIN 78,-34.639899,-58.523585,Cosquín 78-80,Autoservicio
103596,10,3,EXPRESS,INC S.A.,AR-C,CIUDAD AUTONOMA DE BUENOS AIRES,AV. FEDERICO LACROZE 3660,-34.582298,-58.45184,Lacroze 3660,Autoservicio
103597,10,3,EXPRESS,INC S.A.,AR-C,CIUDAD AUTONOMA DE BUENOS AIRES,SANABRIA 2733,-34.611069,-58.506326,Sanabria 2733,Autoservicio
103598,10,3,EXPRESS,INC S.A.,AR-C,CIUDAD AUTONOMA DE BUENOS AIRES,SARMIENTO 1810,-34.605721,-58.392703,Sarmiento 1810,Autoservicio
103599,10,3,EXPRESS,INC S.A.,AR-C,CIUDAD AUTONOMA DE BUENOS AIRES,BLANCO ENCALADA 4470,-34.571795,-58.47995,Blanco Encalada 4470,Autoservicio
103600,10,3,EXPRESS,INC S.A.,AR-C,CIUDAD AUTONOMA DE BUENOS AIRES,DIRECTORIO 3960,-34.640941,-58.479166000000006,Directorio 3960,Autoservicio
103602,10,3,EXPRESS,INC S.A.,AR-C,CIUDAD AUTONOMA DE BUENOS AIRES,AV. RIVADAVIA 8688,-34.635054,-58.486294,Rivadavia 8688-90,Autoservicio
103604,10,3,EXPRESS,INC S.A.,AR-C,CIUDAD AUTONOMA DE BUENOS AIRES,AV. ESTADO DE ISRAEL 4684,-34.600614,-58.4308,Av. Estado de Israel 4684,Autoservicio
103605,10,3,EXPRESS,INC S.A.,AR-C,CIUDAD AUTONOMA DE BUENOS AIRES,AV. JUAN BAUTISTA ALBERDI 7071,-34.65922800000001,-58.512962,Juan B. Alberdi 7071,Autoservicio
103606,10,3,EXPRESS,INC S.A.,AR-X,CORDOBA,OVISPO TREJO 1166,-31.42895900000001,-64.19116,Ovispo Trejo 1166,Autoservicio
103607,10,3,EXPRESS,INC S.A.,AR-X,CORDOBA,CHACABUCO 727,-31.426127,-64.183581,Chacabuco 727,Autoservicio
103608,10,3,EXPRESS,INC S.A.,AR-C,CIUDAD AUTONOMA DE BUENOS AIRES,SERRANO 280,-34.598185,-58.44498299999999,Serrano 280,Autoservicio
103609,10,3,EXPRESS,INC S.A.,AR-C,CIUDAD AUTONOMA DE BUENOS AIRES,AV. DEL LIBERTADOR 4534,-34.566538,-58.431944,Av. del Libertador 4534,Autoservicio
103610,10,3,EXPRESS,INC S.A.,AR-X,CORDOBA,AV. PUEYRREDON 298,-31.425978000000004,-64.192761,Pueyrredón 298,Autoservicio
103613,10,3,EXPRESS,INC S.A.,AR-C,CIUDAD AUTONOMA DE BUENOS AIRES,AV. CONGRESO 2774,-34.557292,-58.465851,Av. Congreso 2774,Autoservicio
103614,10,3,EXPRESS,INC S.A.,AR-C,CIUDAD AUTONOMA DE BUENOS AIRES,MURGUIONDO 4054,-34.675977,-58.477049,Murguiondo 4054,Autoservicio
103615,10,3,EXPRESS,INC S.A.,AR-C,CIUDAD AUTONOMA DE BUENOS AIRES,AV. RIVADAVIA 4702,-34.616267,-58.431839,Rivadavia 4702,Autoservicio
103616,10,3,EXPRESS,INC S.A.,AR-C,CIUDAD AUTONOMA DE BUENOS AIRES,RIO DE JANEIRO 71,-34.614357,-58.42997,Río de Janeiro 71,Autoservicio
103617,10,3,EXPRESS,INC S.A.,AR-C,CIUDAD AUTONOMA DE BUENOS AIRES,MONROE 3131,-34.562325,-58.466949,Monroe 3131,Autoservicio
103618,10,3,EXPRESS,INC S.A.,AR-C,CIUDAD AUTONOMA DE BUENOS AIRES,BULNES 2751,-34.580526,-58.405894,Bulnes 2751,Autoservicio
103619,10,3,EXPRESS,INC S.A.,AR-C,CIUDAD AUTONOMA DE BUENOS AIRES,RAMOS MEJIA 1019,-34.603848,-58.433412,Ramos Mejía 1019,Autoservicio
103620,10,3,EXPRESS,INC S.A.,AR-C,CIUDAD AUTONOMA DE BUENOS AIRES,MARCELO T. DE ALVEAR 1626,-34.597206,-58.390211,Marcelo T. de Alvear 1626,Autoservicio
103621,10,3,EXPRESS,INC S.A.,AR-C,CIUDAD AUTONOMA DE BUENOS AIRES,AV. AVELLANEDA 1034,-34.617216,-58.44524000000001,Avellaneda 1034,Autoservicio
103622,10,3,EXPRESS,INC S.A.,AR-C,CIUDAD AUTONOMA DE BUENOS AIRES,BOYACA 1082,-34.616074,-58.464286,Boyacá 1082,Autoservicio
103623,10,3,EXPRESS,INC S.A.,AR-C,CIUDAD AUTONOMA DE BUENOS AIRES,AV. RIVADAVIA 2520,-34.610019,-58.40245600000001,Av. Rivadavia 2520,Autoservicio
103624,10,3,EXPRESS,INC S.A.,AR-C,CIUDAD AUTONOMA DE BUENOS AIRES,NAZCA 3214,-34.598928,-58.491826,Nazca 3214,Autoservicio
103625,10,3,EXPRESS,INC S.A.,AR-C,CIUDAD AUTONOMA DE BUENOS AIRES,MONTIEL 1061,-34.650917,-58.52574,Montiel 1061,Autoservicio
103626,10,3,EXPRESS,INC S.A.,AR-C,CIUDAD AUTONOMA DE BUENOS AIRES,RAMON FALCON 5547,-34.639022,-58.504957,Ramon Falcón 5547,Autoservicio
103627,10,3,EXPRESS,INC S.A.,AR-C,CIUDAD AUTONOMA DE BUENOS AIRES,AV. PASEO COLON 1179,-34.621333,-58.368478,Paseo Colón 1179,Autoservicio
103628,10,3,EXPRESS,INC S.A.,AR-C,CIUDAD AUTONOMA DE BUENOS AIRES,AV. RIVADAVIA 4119,-34.612645,-58.423957,Rivadavia 4119,Autoservicio
103630,10,3,EXPRESS,INC S.A.,AR-C,CIUDAD AUTONOMA DE BUENOS AIRES,ARAOZ 2148,-34.588209,-58.419052,Aráoz 2148,Autoservicio
103631,10,3,EXPRESS,INC S.A.,AR-C,CIUDAD AUTONOMA DE BUENOS AIRES,LAVALLE 368,-34.601987,-58.371949,Lavalle 368,Autoservicio
103632,10,3,EXPRESS,INC S.A.,AR-C,CIUDAD AUTONOMA DE BUENOS AIRES,AMENABAR 2710,-34.557913,-58.463202,Amenábar 2710,Autoservicio
103633,10,3,EXPRESS,INC S.A.,AR-C,CIUDAD AUTONOMA DE BUENOS AIRES,BOLIVAR 270,-34.611219,-58.37334,Bolívar 270,Autoservicio
103634,10,3,EXPRESS,INC S.A.,AR-C,CIUDAD AUTONOMA DE BUENOS AIRES,MORENO 1401,-34.612239,-58.386223,Moreno 1401,Autoservicio
103635,10,3,EXPRESS,INC S.A.,AR-C,CIUDAD AUTONOMA DE BUENOS AIRES,VIAMONTE 1380,-34.600584000000005,-58.386397,Viamonte 1380,Autoservicio
103636,10,3,EXPRESS,INC S.A.,AR-C,CIUDAD AUTONOMA DE BUENOS AIRES,AYACUCHO 1401,-34.592701,-58.394831,Ayacucho 1401,Autoservicio
103638,10,3,EXPRESS,INC S.A.,AR-B,DERQUI,AV. DE MAYO 432,-34.490709,-58.843137,Av. de Mayo 432,Autoservicio
103639,10,3,EXPRESS,INC S.A.,AR-C,CIUDAD AUTONOMA DE BUENOS AIRES,PEDRO GOYENA 188,-34.62547,-58.42993000000001,Pedro Goyena 188,Autoservicio
103640,10,3,EXPRESS,INC S.A.,AR-C,CIUDAD AUTONOMA DE BUENOS AIRES,BOULOGNE SUR MER 431,-34.60498,-58.406744,Boulogne Sur Mer 431,Autoservicio
103641,10,3,EXPRESS,INC S.A.,AR-X,CORDOBA,ALVEAR 126,-31.415382,-64.180514,Alvear 126,Autoservicio
103642,10,3,EXPRESS,INC S.A.,AR-X,CORDOBA,GRAL. PAZ 240,-31.412485,-64.185278,General Paz 240,Autoservicio
103643,10,3,EXPRESS,INC S.A.,AR-C,CIUDAD AUTONOMA DE BUENOS AIRES,SEGUROLA 1441,-34.622723,-58.4964,Segurola 1441,Autoservicio
103644,10,3,EXPRESS,INC S.A.,AR-X,CORDOBA,25 DE MAYO 979,-31.415769,-64.169505,25 de Mayo 979,Autoservicio
103645,10,3,EXPRESS,INC S.A.,AR-C,CIUDAD AUTONOMA DE BUENOS AIRES,LUIS MARIA DRAGO 285,-34.60151,-58.437085,Luis M Drago 285,Autoservicio
103646,10,3,EXPRESS,INC S.A.,AR-C,CIUDAD AUTONOMA DE BUENOS AIRES,BAUNESS 2692,-34.572841,-58.489511,Baunes 2692,Autoservicio
103648,10,3,EXPRESS,INC S.A.,AR-X,CORDOBA,BELGRANO 54,-31.415363,-64.18853,Belgrano 54,Autoservicio
103649,10,3,EXPRESS,INC S.A.,AR-C,CIUDAD AUTONOMA DE BUENOS AIRES,AV. EMILIO CASTRO 6817,-34.651978,-58.515854,Emilio Castro 6817,Autoservicio
103650,10,3,EXPRESS,INC S.A.,AR-X,CORDOBA,SAN MARTIN 26,-31.42053,-64.499099,San Martín 26,Autoservicio
103652,10,3,EXPRESS,INC S.A.,AR-C,CIUDAD AUTONOMA DE BUENOS AIRES,AV. GRAL. LAS HERAS 2986,-34.58354,-58.403812,Las Heras 2986,Autoservicio
103654,10,3,EXPRESS,INC S.A.,AR-C,CIUDAD AUTONOMA DE BUENOS AIRES,HIPOLITO YRIGOYEN 1790,-34.610358000000005,-58.391532,Hipolito Irigoyen 1790,Autoservicio
103655,10,3,EXPRESS,INC S.A.,AR-C,CIUDAD AUTONOMA DE BUENOS AIRES,SARMIENTO 774,-34.604774,-58.377672,Sarmiento 774,Autoservicio
103656,10,3,EXPRESS,INC S.A.,AR-C,CIUDAD AUTONOMA DE BUENOS AIRES,VIAMONTE 170,-34.599509000000005,-58.36990600000001,Viamonte 170,Autoservicio
103657,10,3,EXPRESS,INC S.A.,AR-C,CIUDAD AUTONOMA DE BUENOS AIRES,MONTIEL 1718,-34.657114,-58.51818000000001,Montiel 1718,Autoservicio
103658,10,3,EXPRESS,INC S.A.,AR-C,CIUDAD AUTONOMA DE BUENOS AIRES,AV. LARRAZABAL 265,-34.641982,-58.514266000000006,Larrazábal 265,Autoservicio
103659,10,3,EXPRESS,INC S.A.,AR-C,CIUDAD AUTONOMA DE BUENOS AIRES,CONESA 999,-34.573102,-58.45128100000001,Conesa 999,Autoservicio
103660,10,3,EXPRESS,INC S.A.,AR-C,CIUDAD AUTONOMA DE BUENOS AIRES,JUAN SEGUI 4524,-34.574055,-58.420475,Juan Seguí 4524,Autoservicio
103661,10,3,EXPRESS,INC S.A.,AR-C,CIUDAD AUTONOMA DE BUENOS AIRES,ARAOZ 1140,-34.594504,-58.428737,Aráoz 1140,Autoservicio
103662,10,3,EXPRESS,INC S.A.,AR-C,CIUDAD AUTONOMA DE BUENOS AIRES,AV. BELGRANO 3043,-34.615032,-58.409057,Av. Belgrano 3043,Autoservicio
103663,10,3,EXPRESS,INC S.A.,AR-C,CIUDAD AUTONOMA DE BUENOS AIRES,ALSINA 725,-34.61042800000001,-58.376565,Alsina 725,Autoservicio
103664,10,3,EXPRESS,INC S.A.,AR-C,CIUDAD AUTONOMA DE BUENOS AIRES,NOGOYA 3644,-34.606446000000005,-58.497733,Nogoyá 3644,Autoservicio
103665,10,3,EXPRESS,INC S.A.,AR-C,CIUDAD AUTONOMA DE BUENOS AIRES,AV. GAONA 2964,-34.617182,-58.467454,Gaona 2964,Autoservicio
103667,10,3,EXPRESS,INC S.A.,AR-C,CIUDAD AUTONOMA DE BUENOS AIRES,AV. DIRECTORIO 4989,-34.650719,-58.49075300000001,Directorio 4989,Autoservicio
103668,10,3,EXPRESS,INC S.A.,AR-C,CIUDAD AUTONOMA DE BUENOS AIRES,JUANA MANSO 199,-34.599909000000004,-58.363959,Juana Manso 199,Autoservicio
103669,10,3,EXPRESS,INC S.A.,AR-B,SAN MARTIN,YAPEYU 2059,-34.575503000000005,-58.535853,Yapeyú 2059,Autoservicio
103670,10,3,EXPRESS,INC S.A.,AR-C,CIUDAD AUTONOMA DE BUENOS AIRES,HIDALGO 92,-34.617774,-58.43836700000001,Hidalgo 92,Autoservicio
103671,10,3,EXPRESS,INC S.A.,AR-C,CIUDAD AUTONOMA DE BUENOS AIRES,SUCRE 2774,-34.565978,-58.45841,Sucre 2774,Autoservicio
103672,10,3,EXPRESS,INC S.A.,AR-C,CIUDAD AUTONOMA DE BUENOS AIRES,AV. CHILAVERT 6901,-34.689440000000005,-58.47959300000001,Av. Chilavert 6901,Autoservicio
103673,10,3,EXPRESS,INC S.A.,AR-C,CIUDAD AUTONOMA DE BUENOS AIRES,CARRASCO 421,-34.632213,-58.491184,Carrasco 421,Autoservicio
103674,10,3,EXPRESS,INC S.A.,AR-C,CIUDAD AUTONOMA DE BUENOS AIRES,VIRREY DEL PINO 2527,-34.567072,-58.454065,Virrey del Pino 2527,Autoservicio
103675,10,3,EXPRESS,INC S.A.,AR-C,CIUDAD AUTONOMA DE BUENOS AIRES,AV. CABILDO 4861,-34.540038,-58.474738,Cabildo 4861,Autoservicio
103676,10,3,EXPRESS,INC S.A.,AR-C,CIUDAD AUTONOMA DE BUENOS AIRES,CHILE 701,-34.616166,-58.376096,Chile 701,Autoservicio
103677,10,3,EXPRESS,INC S.A.,AR-C,CIUDAD AUTONOMA DE BUENOS AIRES,ALVAREZ JONTE 3079,-34.609409,-58.486038,Álvarez Jonte 3079,Autoservicio
103678,10,3,EXPRESS,INC S.A.,AR-C,CIUDAD AUTONOMA DE BUENOS AIRES,ARREGUI 6369,-34.628317,-58.524049,Arregui 6369,Autoservicio
103679,10,3,EXPRESS,INC S.A.,AR-C,CIUDAD AUTONOMA DE BUENOS AIRES,AV. RAUL SCALABRINI ORTIZ 1396,-34.592171,-58.427222,Scalabrini Ortiz 1396,Autoservicio
103680,10,3,EXPRESS,INC S.A.,AR-C,CIUDAD AUTONOMA DE BUENOS AIRES,CARHUE 1427,-34.653948,-58.51897,Carhué 1427,Autoservicio
103682,10,3,EXPRESS,INC S.A.,AR-C,CIUDAD AUTONOMA DE BUENOS AIRES,VIAMONTE 702,-34.599933,-58.376924,Viamonte 702,Autoservicio
103683,10,3,EXPRESS,INC S.A.,AR-C,CIUDAD AUTONOMA DE BUENOS AIRES,AV. CRAMER 2463,-34.561264,-58.464248,Crámer 2463,Autoservicio
103684,10,3,EXPRESS,INC S.A.,AR-C,CIUDAD AUTONOMA DE BUENOS AIRES,MEXICO 1530,-34.615549,-58.387978,México 1530,Autoservicio
103685,10,3,EXPRESS,INC S.A.,AR-C,CIUDAD AUTONOMA DE BUENOS AIRES,PAREJA 4890,-34.605415,-58.52370500000001,Pareja 4890,Autoservicio
103686,10,3,EXPRESS,INC S.A.,AR-C,CIUDAD AUTONOMA DE BUENOS AIRES,JUAN AGUSTIN GARCIA 3202,-34.61257,-58.486073,Juan Agustín García 3202,Autoservicio
103687,10,3,EXPRESS,INC S.A.,AR-C,CIUDAD AUTONOMA DE BUENOS AIRES,ALVAREZ JONTE 1938,-34.603522,-58.471445,Álvarez Jonte 1938,Autoservicio
103688,10,3,EXPRESS,INC S.A.,AR-C,CIUDAD AUTONOMA DE BUENOS AIRES,AV. LOPE DE VEGA 19,-34.63691,-58.49946600000001,Lope de Vega 19,Autoservicio
103689,10,3,EXPRESS,INC S.A.,AR-C,CIUDAD AUTONOMA DE BUENOS AIRES,AV. INDEPENDENCIA 2716,-34.619005,-58.403897,Av. Independencia 2716,Autoservicio
103691,10,3,EXPRESS,INC S.A.,AR-C,CIUDAD AUTONOMA DE BUENOS AIRES,AV. LA PLATA 716,-34.623822,-58.4273,Av. La Plata 716,Autoservicio
103693,10,3,EXPRESS,INC S.A.,AR-C,CIUDAD AUTONOMA DE BUENOS AIRES,PEDRO GOYENA 1680,-34.628516,-58.4521,Pedro Goyena 1680,Autoservicio
103694,10,3,EXPRESS,INC S.A.,AR-C,CIUDAD AUTONOMA DE BUENOS AIRES,TUCUMAN 1541,-34.601674,-58.38872900000001,Tucumán 1541,Autoservicio
103695,10,3,EXPRESS,INC S.A.,AR-C,CIUDAD AUTONOMA DE BUENOS AIRES,ALMIRANTE BROWN 261,-34.628636,-58.366311,Almirante Brown 261,Autoservicio
103697,10,3,EXPRESS,INC S.A.,AR-C,CIUDAD AUTONOMA DE BUENOS AIRES,CABOTO 420,-34.627790000000005,-58.360295,Caboto 420,Autoservicio
103698,10,3,EXPRESS,INC S.A.,AR-C,CIUDAD AUTONOMA DE BUENOS AIRES,BELAUSTEGUI 2748,-34.615452000000005,-58.475326,Beláustegui 2748,Autoservicio
103699,10,3,EXPRESS,INC S.A.,AR-C,CIUDAD AUTONOMA DE BUENOS AIRES,AV. DORREGO 2145,-34.578078000000005,-58.439338,Dorrego 2145,Autoservicio
103710,10,3,EXPRESS,INC S.A.,AR-C,CIUDAD AUTONOMA DE BUENOS AIRES,NAHUEL HUAPI 5038,-34.571129,-58.48838000000001,Nahuel Huapi 5038,Autoservicio
103711,10,3,EXPRESS,INC S.A.,AR-C,CIUDAD AUTONOMA DE BUENOS AIRES,AV. ALVAREZ THOMAS 372,-34.58128,-58.44905,Álvarez Thomas 372,Autoservicio
103715,10,3,EXPRESS,INC S.A.,AR-C,CIUDAD AUTONOMA DE BUENOS AIRES,AV. CORDOBA 4967,-34.591615000000004,-58.4339,Córdoba 4967,Autoservicio
103716,10,3,EXPRESS,INC S.A.,AR-C,CIUDAD AUTONOMA DE BUENOS AIRES,CASTANEDA 1836,-34.553982,-58.436642000000006,Castañeda 1836,Autoservicio
103721,10,3,EXPRESS,INC S.A.,AR-C,CIUDAD AUTONOMA DE BUENOS AIRES,TRES DE FEBRERO 1857,-34.561609000000004,-58.449967,Tres de Febrero 1857,Autoservicio
103723,10,3,EXPRESS,INC S.A.,AR-C,CIUDAD AUTONOMA DE BUENOS AIRES,AV. LEANDRO N. ALEM 198,-34.60537,-58.370312,Alem 198,Autoservicio
103724,10,3,EXPRESS,INC S.A.,AR-C,CIUDAD AUTONOMA DE BUENOS AIRES,AYACUCHO 539,-34.602748,-58.395363,Ayacucho 539,Autoservicio
103725,10,3,EXPRESS,INC S.A.,AR-C,CIUDAD AUTONOMA DE BUENOS AIRES,AV. DIRECTORIO 2320,-34.633156,-58.459408,Directorio 2320,Autoservicio
103726,10,3,EXPRESS,INC S.A.,AR-C,CIUDAD AUTONOMA DE BUENOS AIRES,AV. LISANDRO DE LATORRE 199,-34.641224,-58.521055,Lisandro de Latorre 199,Autoservicio
103727,10,3,EXPRESS,INC S.A.,AR-C,CIUDAD AUTONOMA DE BUENOS AIRES,MONTIEL 168,-34.641073,-58.526236,Montiel 168,Autoservicio
103730,10,3,EXPRESS,INC S.A.,AR-C,CIUDAD AUTONOMA DE BUENOS AIRES,ESMERALDA 151,-34.606445,-58.377861,Esmeralda 151,Autoservicio
103731,10,3,EXPRESS,INC S.A.,AR-C,CIUDAD AUTONOMA DE BUENOS AIRES,SARMIENTO 4551,-34.60400300000001,-58.429635,Sarmiento 4551,Autoservicio
103732,10,3,EXPRESS,INC S.A.,AR-C,CIUDAD AUTONOMA DE BUENOS AIRES,AMBROSETTI 758,-34.609696,-58.438723,Ambrosetti 758,Autoservicio
103733,10,3,EXPRESS,INC S.A.,AR-C,CIUDAD AUTONOMA DE BUENOS AIRES,AV. LISANDRO DE LATORRE 790,-34.647473,-58.519847,Lisandro de Latorre 790,Autoservicio
103734,10,3,EXPRESS,INC S.A.,AR-C,CIUDAD AUTONOMA DE BUENOS AIRES,URQUIZA 1015,-34.622701,-58.409197,Urquiza 1015,Autoservicio
103735,10,3,EXPRESS,INC S.A.,AR-C,CIUDAD AUTONOMA DE BUENOS AIRES,AV. PUEYRREDON 2120,-34.587782000000004,-58.3979,Pueyrredón 2120,Autoservicio
103739,10,3,EXPRESS,INC S.A.,AR-C,CIUDAD AUTONOMA DE BUENOS AIRES,FRANKLIN D ROOSEVELT 3002,-34.560829,-58.46618100000001,Franklin D Roosevelt 3002,Autoservicio
103740,10,3,EXPRESS,INC S.A.,AR-C,CIUDAD AUTONOMA DE BUENOS AIRES,AV. VARELA 888,-34.639449,-58.45854300000001,Varela 888,Autoservicio
103742,10,3,EXPRESS,INC S.A.,AR-C,CIUDAD AUTONOMA DE BUENOS AIRES,AV. JUAN BAUTISTA ALBERDI 5494,-34.649025,-58.49953100000001,Juan B. Alberdi 5494,Autoservicio
1121007,11,2,CHANGOMAS,WAL MART ARGENTINA S.R.L.,AR-F,LA RIOJA,ORTIZ DE OCAMPO 1127,-29.428056,-66.862434,La Rioja,Hipermercado
1121011,11,2,CHANGOMAS,WAL MART ARGENTINA S.R.L.,AR-A,SALTA,AV PARAGUAY 1450,-24.804821,-65.420784,Salta,Hipermercado
1121012,11,2,CHANGOMAS,WAL MART ARGENTINA S.R.L.,AR-G,SANTIAGO DEL ESTERO,AV BELGRANO SUR 2663,-27.809677,-64.249649,Santiago,Hipermercado
1121013,11,2,CHANGOMAS,WAL MART ARGENTINA S.R.L.,AR-B,TIGRE,COLOMBIA 1212,-34.47377,-58.66267,Tigre,Hipermercado
1121015,11,2,CHANGOMAS,WAL MART ARGENTINA S.R.L.,AR-M,MAIPU,MAZA 470,-32.978813,-68.79714200000001,Maipu,Hipermercado
1121021,11,2,CHANGOMAS,WAL MART ARGENTINA S.R.L.,AR-Q,NEUQUEN,AV BELGRANO 2735,-38.950523,-68.097285,Neuquen,Hipermercado
1121022,11,2,CHANGOMAS,WAL MART ARGENTINA S.R.L.,AR-R,SAN CARLOS DE BARILOCHE,AV J HERMANN E/PJE GUTIERREZ Y CALFU CO 0 NONE,-41.160854,-71.31914499999998,Bariloche,Hipermercado
1121023,11,2,CHANGOMAS,WAL MART ARGENTINA S.R.L.,AR-L,SANTA ROSA,CIRCUNVALACION ING MARZO 1550,-36.603195,-64.270973,La Pampa,Hipermercado
1121024,11,2,CHANGOMAS,WAL MART ARGENTINA S.R.L.,AR-P,FORMOSA,AV GUNITSKY 3636,-26.19504,-58.203313,Formosa,Hipermercado
1121026,11,2,CHANGOMAS,WAL MART ARGENTINA S.R.L.,AR-K,SAN FERNANDO DEL VALLE DE CATAMARCA,AV VILLAFANE 2420,-28.467222,-65.755218,Catamarca,Hipermercado
1121028,11,2,CHANGOMAS,WAL MART ARGENTINA S.R.L.,AR-B,ALMIRANTE BROWN,AV ESPORA 2074,-34.816631,-58.38989599999999,Almirante Brown,Hipermercado
1121029,11,2,CHANGOMAS,WAL MART ARGENTINA S.R.L.,AR-B,MORENO,AV JULIO ARGENTINO ROCA 3500,-34.588063,-58.745112,Moreno,Hipermercado
1121031,11,2,CHANGOMAS,WAL MART ARGENTINA S.R.L.,AR-Y,SAN SALVADOR DE JUJUY,RIOBAMBA Y RUTA 9 NONE,-24.210677,-65.28849699999999,Jujuy,Hipermercado
1121032,11,2,CHANGOMAS,WAL MART ARGENTINA S.R.L.,AR-B,INGENIERO PABLO NOGUES,RN 197 AV DEL SESQUICENTENARIO 1781,-34.499103000000005,-58.710798,Malvinas Arg,Hipermercado
1121033,11,2,CHANGOMAS,WAL MART ARGENTINA S.R.L.,AR-T,BANDA DEL RIO SALI,GUATEMALA Y AV. SAN MARTIN NONE,-26.837785,-65.16938,Rio Sali,Supermercado
1121035,11,2,CHANGOMAS,WAL MART ARGENTINA S.R.L.,AR-B,CASEROS,AV PTE PERON 9150,-34.575111,-58.611389,Tres de Febrero,Hipermercado
1121038,11,2,CHANGOMAS,WAL MART ARGENTINA S.R.L.,AR-R,CIPOLLETTI,BOLIVIA 1169,-38.931846,-67.984138,Cipoletti,Hipermercado
1121039,11,2,CHANGOMAS,WAL MART ARGENTINA S.R.L.,AR-E,PARANA,AV BLAS PARERA 1152,-31.74191,-60.493869,Parana,Hipermercado
1121042,11,2,CHANGOMAS,WAL MART ARGENTINA S.R.L.,AR-U,TRELEW,AVENIDA EVA PERON 719,-43.249282,-65.29080400000001,Trelew,Hipermercado
1121050,11,2,CHANGOMAS,WAL MART ARGENTINA S.R.L.,AR-B,LANUS,BOULEVARD DE LOS ITALIANOS 321,-34.718809,-58.351975,Lanus,Hipermercado
1121051,11,2,CHANGOMAS,WAL MART ARGENTINA S.R.L.,AR-N,POSADAS,AV TAMBOR DE TACUARI 5158,-27.367221,-55.92750899999999,Posadas,Hipermercado
1121052,11,2,CHANGOMAS,WAL MART ARGENTINA S.R.L.,AR-A,SAN RAMON DE LA NUEVA ORAN,AV PUEYRREDON Y AV PALACIOS NONE,-23.144838,-64.326263,Oran,Hipermercado
1121053,11,2,CHANGOMAS,WAL MART ARGENTINA S.R.L.,AR-R,VIEDMA,TIERRA DEL FUEGO 514,-40.824867,-62.984272,Viedma,Hipermercado
1121055,11,2,CHANGOMAS,WAL MART ARGENTINA S.R.L.,AR-D,VILLA MERCEDES,AV PTE PERON E/J DARACT Y NECOCHEA 825,-33.680309,-65.452308,Villa Mer,Hipermercado
1121056,11,2,CHANGOMAS,WAL MART ARGENTINA S.R.L.,AR-X,VILLA NUEVA,AV CARRANZA E/ LIMA Y COSTANERA 980,-32.423605,-63.24397800000001,Villa Nueva,Hipermercado
1121059,11,2,CHANGOMAS,WAL MART ARGENTINA S.R.L.,AR-B,GONZALEZ CATAN,AV.BDER.GRAL.J.M. DE ROSAS 14446,-34.763558,-58.618841,González Catán,Hipermercado
1121060,11,2,CHANGOMAS,WAL MART ARGENTINA S.R.L.,AR-X,BARRIO MATIENZO *,AV FUERZA AEREA ARGENTINA 4372,-31.432014,-64.24399100000001,CDBA-Fuerza Aerea,Supermercado
1121061,11,2,CHANGOMAS,WAL MART ARGENTINA S.R.L.,AR-B,JUNIN,RUTA N 7 Y SARGENTO CABRAL NONE,-34.597411,-60.975084,Junin,Hipermercado
1121067,11,2,CHANGOMAS,WAL MART ARGENTINA S.R.L.,AR-M,GENERAL SAN MARTIN,BOULOGNE SUR MER 700,-33.079826000000004,-68.482803,San Martin,Hipermercado
1121074,11,2,CHANGOMAS,WAL MART ARGENTINA S.R.L.,AR-W,GOYA,AV.PTE.D.F.SARMIENTO Y J.M.SOTO NONE,-29.154703,-59.272544,Goya,Hipermercado
1121075,11,2,CHANGOMAS,WAL MART ARGENTINA S.R.L.,AR-A,BARRIO CASTANARES,AVENIDA FUERZA AEREA ESQ. AGUAS BLANCAS NONE,-24.7261,-65.403373,Salta Ciudad Judicial,Hipermercado
1121076,11,2,CHANGOMAS,WAL MART ARGENTINA S.R.L.,AR-B,TEMPERLEY,CERRITO 1891,-34.756839,-58.377738,Lomas Cerrito,Hipermercado
1121077,11,2,CHANGOMAS,WAL MART ARGENTINA S.R.L.,AR-L,GENERAL PICO,CALLE 319 352,-35.662563,-63.78319499999999,Gral Pico,Hipermercado
1121078,11,2,CHANGOMAS,WAL MART ARGENTINA S.R.L.,AR-A,TARTAGAL,PARAGUAY Y RUTA NAC. NRO. 34 NONE,-22.513508,-63.79213100000001,Tartagal,Hipermercado
1121080,11,2,CHANGOMAS,WAL MART ARGENTINA S.R.L.,AR-G,SANTIAGO DEL ESTERO,AVENIDA LEOPOLDO LUGONES ESQ. PEDRO CONT NONE,-27.82813,-64.270004,Santiago Sur,Hipermercado
1121081,11,2,CHANGOMAS,WAL MART ARGENTINA S.R.L.,AR-J,BARRIO RAWSON,AV. DOCTOR ORTEGA Y LAS VICENTINAS NONE,-31.575672,-68.543724,Rawson,Hipermercado
1121082,11,2,CHANGOMAS,WAL MART ARGENTINA S.R.L.,AR-T,SAN MIGUEL DE TUCUMAN,AVENIDA JUJUY Y AVENIDA DEMOCRACIA NONE,-26.866111,-65.22110699999999,Tucumán,Supermercado
1121085,11,2,CHANGOMAS,WAL MART ARGENTINA S.R.L.,AR-W,CORRIENTES,AVENIDA MAIPU Y LOS CONDORES NONE,-27.500421000000006,-58.812722,Corrientes,Hipermercado
1121086,11,2,CHANGOMAS,WAL MART ARGENTINA S.R.L.,AR-P,FORMOSA,DR. LAUREANO MARADONA Y SOMACAL NONE,-26.151456,-58.161308,Formosa II,Hipermercado
1121088,11,2,CHANGOMAS,WAL MART ARGENTINA S.R.L.,AR-T,CONCEPCION,AVENIDA GUEMES ESQ. FRANCIA NONE,-27.35041,-65.589111,Concepción,Hipermercado
1121092,11,2,CHANGOMAS,WAL MART ARGENTINA S.R.L.,AR-J,SAN JUAN,AVENIDA N. BENAVIDEZ ESQ. COLON 1050,-31.51111,-68.546211,San Juan Chimbas,Hipermercado
1121097,11,2,CHANGOMAS,WAL MART ARGENTINA S.R.L.,AR-X,BARRIO AERONAUTICO *,AVENIDA DONATO ALVAREZ 8600,-31.32402,-64.269118,Cordoba Donato Alvarez,Hipermercado
1121098,11,2,CHANGOMAS,WAL MART ARGENTINA S.R.L.,AR-H,PRESIDENCIA ROQUE SAENZ PENA,AVENIDA J. M. DE ROSAS 1298,-26.791271,-60.45274300000001,Roque Saenz Peña,Hipermercado
1121099,11,2,CHANGOMAS,WAL MART ARGENTINA S.R.L.,AR-N,POSADAS,AVENIDA CABO DE HORNOS 4130,-27.425611,-55.933212,Posadas II,Hipermercado
1121100,11,2,CHANGOMAS,WAL MART ARGENTINA S.R.L.,AR-L,SANTA ROSA,AVENIDA PTE. JUAN D. PERON ESQ. UTRACAN NONE,-36.634811,-64.315208,Santa Rosa II,Hipermercado
1121106,11,2,CHANGOMAS,WAL MART ARGENTINA S.R.L.,AR-T,SAN MIGUEL DE TUCUMAN,AVENIDA EJERCITO DEL NORTE 2324,-26.794185,-65.224521,Tucuman II,Hipermercado
1121108,11,2,CHANGOMAS,WAL MART ARGENTINA S.R.L.,AR-U,PUERTO MADRYN,AVENIDA JUAN B. JUSTO 1885,-42.784827,-65.033376,Puerto Madryn,Hipermercado
1121110,11,2,CHANGOMAS,WAL MART ARGENTINA S.R.L.,AR-B,CLAYPOLE,AVENIDA LACAZE 3963,-34.809112,-58.34391,Claypole,Supermercado
1121111,11,2,CHANGOMAS,WAL MART ARGENTINA S.R.L.,AR-Y,SAN PEDRO,SAN GABRIEL 712,-24.22491,-64.860412,San Pedro Jujuy,Hipermercado
1121114,11,2,CHANGOMAS,WAL MART ARGENTINA S.R.L.,AR-P,CLORINDA,AV. TUCUMAN Y SOLDADO ARGENTINO NONE,-25.287482,-57.723763,Clorinda,Supermercado
1121115,11,2,CHANGOMAS,WAL MART ARGENTINA S.R.L.,AR-R,GENERAL ROCA,CHULA VISTA 1550,-39.036712,-67.588813,Gral Roca,Supermercado
1121116,11,2,CHANGOMAS,WAL MART ARGENTINA S.R.L.,AR-B,MORON,AV. DON BOSCO 5635,-34.689084,-58.62624399999999,Morón,Hipermercado
1141027,11,4,MI CHANGOMAS,WAL MART ARGENTINA S.R.L.,AR-C,CIUDAD AUTONOMA BUENOS AIRES,AV. PERON EVA 5526,-34.661576000000004,-58.484237,Mataderos,Supermercado
1141030,11,4,MI CHANGOMAS,WAL MART ARGENTINA S.R.L.,AR-B,JOSE CLEMENTE PAZ,AV GASPAR CAMPOS 5690,-34.530126,-58.749982,Jose C Paz,Supermercado
1141036,11,4,MI CHANGOMAS,WAL MART ARGENTINA S.R.L.,AR-B,MORENO,MARTINEZ MELO 151,-34.651918,-58.792474,Moreno Shopping,Supermercado
1141037,11,4,MI CHANGOMAS,WAL MART ARGENTINA S.R.L.,AR-B,SAN MARTIN,ESTRADA 3072,-34.5741,-58.530495,San Martín,Supermercado
1141044,11,4,MI CHANGOMAS,WAL MART ARGENTINA S.R.L.,AR-B,WILLIAMS MORRIS *,AV VILLEGAS 2750,-34.587223,-58.662776,Hurlimgham I,Supermercado
1141045,11,4,MI CHANGOMAS,WAL MART ARGENTINA S.R.L.,AR-B,VILLA SANTOS TESEI,AV. GOB. VALENTIN VERGARA ESQ. CAYETANO 2950,-34.607496999999995,-58.635181,Hurlimgham II,Supermercado
1141046,11,4,MI CHANGOMAS,WAL MART ARGENTINA S.R.L.,AR-B,PERGAMINO,BOULEVARD DARDO ROCHA 280,-33.894012,-60.564921,Pergamino,Supermercado
1141084,11,4,MI CHANGOMAS,WAL MART ARGENTINA S.R.L.,AR-B,SAN VICENTE,AVENIDA 25 DE MAYO 37,-35.02346,-58.423526,San Vicente,Supermercado
1151002,11,5,WALMART SUPERCENTER,WAL MART ARGENTINA S.R.L.,AR-X,RIO CUARTO,JUAN B JUSTO 2052,-33.131159999999994,-64.3824,Rio IV,Hipermercado
1151003,11,5,WALMART SUPERCENTER,WAL MART ARGENTINA S.R.L.,AR-D,SAN LUIS,AV DEL FUNDADOR (RUTA NACIONAL 7 Y 147) 1450,-33.296619,-66.303039,San Luis,Hipermercado
1151004,11,5,WALMART SUPERCENTER,WAL MART ARGENTINA S.R.L.,AR-B,SAN FERNANDO,CNO BANCALARI E/202 Y URUGUAY NONE,-34.484169,-58.595829,San Fernando,Hipermercado
1151005,11,5,WALMART SUPERCENTER,WAL MART ARGENTINA S.R.L.,AR-M,MENDOZA CIUDAD,BOULOGNE SUR MER Y REGALADO OLGUIN NONE,-32.850687,-68.858646,Las Heras,Hipermercado
1151006,11,5,WALMART SUPERCENTER,WAL MART ARGENTINA S.R.L.,AR-J,BARRIO RIVADAVIA,JOSE IGNACIO DE LA ROSA OESTE 806,-31.541112,-68.573364,San Juan,Hipermercado
1151008,11,5,WALMART SUPERCENTER,WAL MART ARGENTINA S.R.L.,AR-W,CORRIENTES,GREGORIO POMAR 840,-27.47005,-58.805927,Corrientes,Hipermercado
1151010,11,5,WALMART SUPERCENTER,WAL MART ARGENTINA S.R.L.,AR-X,CIUDAD DE CORDOBA NORTE,AV CIRCUNVALACION ESTE 2557,-31.466986,-64.162452,Córdoba Sur,Hipermercado
1151014,11,5,WALMART SUPERCENTER,WAL MART ARGENTINA S.R.L.,AR-B,LUJAN,ROBERTO J PAYRO 198,-34.548107,-59.112037,Lujan,Hipermercado
1151016,11,5,WALMART SUPERCENTER,WAL MART ARGENTINA S.R.L.,AR-B,SARANDI,AUTOPISTA BS AS LA PLATA KM 9 0 NONE,-34.678569,-58.334423,Avellaneda 2,Hipermercado
1151017,11,5,WALMART SUPERCENTER,WAL MART ARGENTINA S.R.L.,AR-B,TABLADA,MONSENOR BUFANO 6050,-34.701454,-58.534011,La Tablada,Hipermercado
1151018,11,5,WALMART SUPERCENTER,WAL MART ARGENTINA S.R.L.,AR-B,BARRIO EL DORADO,AV CALCHAQUI 700,-34.733394,-58.29361700000001,Quilmes,Hipermercado
1151020,11,5,WALMART SUPERCENTER,WAL MART ARGENTINA S.R.L.,AR-T,SAN MIGUEL DE TUCUMAN,AV CAMINO DEL PERU 950,-26.804676,-65.26001,Tucumán,Hipermercado
1151043,11,5,WALMART SUPERCENTER,WAL MART ARGENTINA S.R.L.,AR-B,GREGORIO DE LAFERRERE,RUTA 21 Y CARLOS CASARES NONE,-34.741890000000005,-58.564317,Laferrere,Hipermercado
1151054,11,5,WALMART SUPERCENTER,WAL MART ARGENTINA S.R.L.,AR-B,OLAVARRIA,AV RIVADAVIA 4370,-36.880767,-60.304042,Olavarria,Hipermercado
1151057,11,5,WALMART SUPERCENTER,WAL MART ARGENTINA S.R.L.,AR-U,COMODORO RIVADAVIA,AVENIDA CHILE 350,-45.883474,-67.525299,Comodoro,Hipermercado
1151058,11,5,WALMART SUPERCENTER,WAL MART ARGENTINA S.R.L.,AR-H,RESISTENCIA,AVENIDA MARCONI 2279,-27.446553,-59.021331,Resistencia,Hipermercado
1151068,11,5,WALMART SUPERCENTER,WAL MART ARGENTINA S.R.L.,AR-M,GODOY CRUZ,AVENIDA SAN MARTIN SUR 2575,-32.951366,-68.85859599999999,Palmares,Hipermercado
1151087,11,5,WALMART SUPERCENTER,WAL MART ARGENTINA S.R.L.,AR-B,PILAR,COLECTORA ACCESO NORTE 51500,-34.448738,-58.885978,Pilar,Hipermercado
1151093,11,5,WALMART SUPERCENTER,WAL MART ARGENTINA S.R.L.,AR-U,COMODORO RIVADAVIA,AVENIDA LIBERTADOR GRAL. SAN MARTIN 1585,-45.827236,-67.467628,Comodoro Norte,Hipermercado
1151096,11,5,WALMART SUPERCENTER,WAL MART ARGENTINA S.R.L.,AR-B,SANTOS LUGARES,AVDA. GRAL. J. J. URQUIZA 4320,-34.60665,-58.555198,Caseros,Hipermercado
1152997,11,5,WALMART SUPERCENTER,WAL MART ARGENTINA S.R.L.,AR-C,CIUDAD AUTONOMA BUENOS AIRES,AV. DE LOS CONSTITUYENTES 6020,-34.572793,-58.5078,Grafa,Hipermercado
1152998,11,5,WALMART SUPERCENTER,WAL MART ARGENTINA S.R.L.,AR-B,SAN JUSTO,BRIG GRAL J M ROSAS 3990,-34.68584,-58.555326,San Justo,Hipermercado
1152999,11,5,WALMART SUPERCENTER,WAL MART ARGENTINA S.R.L.,AR-B,AVELLANEDA,AV GUEMES 861,-34.677509,-58.366668,Avellaneda,Hipermercado
1153601,11,5,WALMART SUPERCENTER,WAL MART ARGENTINA S.R.L.,AR-B,LA PLATA NOROESTE DE LA CALLE 50,CAMINO CENTENARIO 1876,-34.89049,-57.996848,La Plata,Hipermercado
1153602,11,5,WALMART SUPERCENTER,WAL MART ARGENTINA S.R.L.,AR-B,BAHIA BLANCA,SARMIENTO 4114,-38.697583,-62.243096,Bahia BL,Hipermercado
1153603,11,5,WALMART SUPERCENTER,WAL MART ARGENTINA S.R.L.,AR-S,SANTA FE,RUTA NAC 168 KM 474 NONE,-31.642111,-60.65644,Santa Fe (24hs),Hipermercado
1153604,11,5,WALMART SUPERCENTER,WAL MART ARGENTINA S.R.L.,AR-E,PARANA,ANACLETO MEDINA 319,-31.721006,-60.547111,Paraná,Hipermercado
1153605,11,5,WALMART SUPERCENTER,WAL MART ARGENTINA S.R.L.,AR-X,CIUDAD DE CORDOBA NORTE,AV COLON 6051,-31.395535,-64.259731,Córdoba OE,Hipermercado
1153606,11,5,WALMART SUPERCENTER,WAL MART ARGENTINA S.R.L.,AR-X,CIUDAD DE CORDOBA NORTE,MAURICIO YADAROLA 1699,-31.391634000000003,-64.15848299999999,Córdoba Este,Hipermercado
1153608,11,5,WALMART SUPERCENTER,WAL MART ARGENTINA S.R.L.,AR-Q,NEUQUEN,EUGENIO PERTICONE 1255,-38.960601,-68.041,Neuquén (24hs),Hipermercado
1153613,11,5,WALMART SUPERCENTER,WAL MART ARGENTINA S.R.L.,AR-M,VILLANUEVA,MOLDES 1023,-32.91451,-68.825287,Mendoza (24hs),Hipermercado
121101,12,1,COTO CICSA,COTO CENTRO INTEGRAL DE COMERCIALIZACION S.A.,AR-B,AVELLANEDA,ITALIA 62,-34.6650066,-58.3623175,AVELLANEDA ,Supermercado
121103,12,1,COTO CICSA,COTO CENTRO INTEGRAL DE COMERCIALIZACION S.A.,AR-C,CAPITAL FEDERAL,AV. GAONA 1956,-34.612114899999995,-58.4550437,IVONNE ,Hipermercado
121104,12,1,COTO CICSA,COTO CENTRO INTEGRAL DE COMERCIALIZACION S.A.,AR-B,QUILMES,12 DE OCTUBRE 3054,-34.7437163,-58.2891868,QUILMES ,Supermercado
121105,12,1,COTO CICSA,COTO CENTRO INTEGRAL DE COMERCIALIZACION S.A.,AR-B,MONTE GRANDE,BOULEVAR BS. AS. 710,-34.814703,-58.456994,MONTE GRANDE ,Hipermercado
121107,12,1,COTO CICSA,COTO CENTRO INTEGRAL DE COMERCIALIZACION S.A.,AR-B,LOMAS DE ZAMORA,HIPOLITO IRIGOYEN 10699,-34.78172720000001,-58.40670649999999,TEMPERLEY ,Hipermercado
121108,12,1,COTO CICSA,COTO CENTRO INTEGRAL DE COMERCIALIZACION S.A.,AR-C,CAPITAL FEDERAL,AV. CABILDO 4125,-34.5458941,-58.4705622,CABILDO ,Supermercado
121109,12,1,COTO CICSA,COTO CENTRO INTEGRAL DE COMERCIALIZACION S.A.,AR-E,PARANA,CORONEL JUAN M. PIRAN 801,-31.741937100000005,-60.538765100000006,PARANA ,Hipermercado
121110,12,1,COTO CICSA,COTO CENTRO INTEGRAL DE COMERCIALIZACION S.A.,AR-C,V ILLA LUGANO,SOLDADO DE LA FRONTERA 5258,-34.684517799999995,-58.46414470000001,LUGANO ,Hipermercado
121111,12,1,COTO CICSA,COTO CENTRO INTEGRAL DE COMERCIALIZACION S.A.,AR-B,SAN MARTIN,AV. BALBIN 2030,-34.58105379999999,-58.5418252,SAN MARTIN,Supermercado
121116,12,1,COTO CICSA,COTO CENTRO INTEGRAL DE COMERCIALIZACION S.A.,AR-C,CABALLITO,YERBAL 1062,-34.62116,-58.445992,YERBAL ,Supermercado
121117,12,1,COTO CICSA,COTO CENTRO INTEGRAL DE COMERCIALIZACION S.A.,AR-B,CAMPANA,JUAN M. ESTRADA 878,-34.1659506,-58.9611328,CAMPANA ,Supermercado
121118,12,1,COTO CICSA,COTO CENTRO INTEGRAL DE COMERCIALIZACION S.A.,AR-S,CIUDAD DE SANTA FE,RIVADAVIA 3396,-31.637308,-60.7017017,SANTA FE ,Hipermercado
121121,12,1,COTO CICSA,COTO CENTRO INTEGRAL DE COMERCIALIZACION S.A.,AR-C,LUGANO,LARRAZABAL 3443,-34.671088,-58.47915,LARRAZABAL ,Supermercado
121123,12,1,COTO CICSA,COTO CENTRO INTEGRAL DE COMERCIALIZACION S.A.,AR-B,BELLA VISTA,O HIGGINS 1263,-34.5715475,-58.6833252,BELLA VISTA ,Supermercado
121124,12,1,COTO CICSA,COTO CENTRO INTEGRAL DE COMERCIALIZACION S.A.,AR-C,CAPITAL FEDERAL,AV. SAN JUAN 2168,-34.6230367,-58.3959072,SAN JUAN ,Hipermercado
121125,12,1,COTO CICSA,COTO CENTRO INTEGRAL DE COMERCIALIZACION S.A.,AR-C,CDAD. DE BS.AS,LOPE DE VEGA 1742,-34.623834,-58.512072,LOPE DE VEGA ,Supermercado
121129,12,1,COTO CICSA,COTO CENTRO INTEGRAL DE COMERCIALIZACION S.A.,AR-B,CIUDADELA,COMESANA 4056,-34.6287238,-58.5488933,CIUDADELA ,Hipermercado
12113,12,1,COTO CICSA,COTO CENTRO INTEGRAL DE COMERCIALIZACION S.A.,AR-B,GONZALEZ CATAN,AV. BRIG. GRAL. JUAN MANUEL DE ROSAS 14457,-34.764146000000004,-58.6200547,RUTA 3 ,Supermercado
121130,12,1,COTO CICSA,COTO CENTRO INTEGRAL DE COMERCIALIZACION S.A.,AR-B,BERNAL,AV. DARDO ROCHA 251,-34.719142,-58.29132729999999,BERNAL ,Supermercado
121131,12,1,COTO CICSA,COTO CENTRO INTEGRAL DE COMERCIALIZACION S.A.,AR-B,JOSE C PAZ,HIPOLITO YRIGOYEN 1826,-34.519576,-58.7531003,JOSE C. PAZ ,Hipermercado
121136,12,1,COTO CICSA,COTO CENTRO INTEGRAL DE COMERCIALIZACION S.A.,AR-C,CAPITAL FEDERAL,PEDRO GOYENA 565,-34.62593270000001,-58.4355294,PEDRO GOYENA ,Supermercado
121149,12,1,COTO CICSA,COTO CENTRO INTEGRAL DE COMERCIALIZACION S.A.,AR-B,LA PLATA,CALLE 43 782,-34.91325870000001,-57.9601721,LA PLATA ,Supermercado
121151,12,1,COTO CICSA,COTO CENTRO INTEGRAL DE COMERCIALIZACION S.A.,AR-C,PARQUE CHACABUCO,ASAMBLEA 1100,-34.6358296,-58.4415417,ASAMBLEA ,Supermercado
121153,12,1,COTO CICSA,COTO CENTRO INTEGRAL DE COMERCIALIZACION S.A.,AR-C,CAPITAL FEDERAL,AV. ALVAREZ JONTE 2502,-34.60737570000001,-58.47749200000001,JONTE ,Supermercado
121154,12,1,COTO CICSA,COTO CENTRO INTEGRAL DE COMERCIALIZACION S.A.,AR-B,ESCOBAR,TAPIA DE CRUZ 420,-34.3456017,-58.7928537,ESCOBAR ,Supermercado
121155,12,1,COTO CICSA,COTO CENTRO INTEGRAL DE COMERCIALIZACION S.A.,AR-B,PILAR,COUNTRY HIGHLAND PARK NONE,-34.419958,-58.79467800000001,155 HIGHLAND PARK ,Supermercado
121158,12,1,COTO CICSA,COTO CENTRO INTEGRAL DE COMERCIALIZACION S.A.,AR-C,CAPITAL FEDERAL,CHARCAS 2980,-34.5924706,-58.4111036,CHARCAS ,Hipermercado
121159,12,1,COTO CICSA,COTO CENTRO INTEGRAL DE COMERCIALIZACION S.A.,AR-C,CAPITAL FEDERAL,BARTOLOME MITRE 1558,-34.6077047,-58.3879012,MITRE ,Supermercado
121160,12,1,COTO CICSA,COTO CENTRO INTEGRAL DE COMERCIALIZACION S.A.,AR-C,CAPITAL FEDERAL,AV. ANTARTICA ARGENTINA 1160,-34.5850445,-58.372698,SADOS ,Hipermercado
121162,12,1,COTO CICSA,COTO CENTRO INTEGRAL DE COMERCIALIZACION S.A.,AR-B,PILAR,TORTUGAS COUNTRY CLUB NONE,-34.4620027,-58.7601993,TORTUGUITAS ,Supermercado
121163,12,1,COTO CICSA,COTO CENTRO INTEGRAL DE COMERCIALIZACION S.A.,AR-C,CAPITAL FEDERAL,JUNIN 1073,-34.5960054,-58.3973971,JUNIN ,Supermercado
121164,12,1,COTO CICSA,COTO CENTRO INTEGRAL DE COMERCIALIZACION S.A.,AR-B,VILLA BALLESTER,JOSE HERNANDEZ 2955,-34.5553723,-58.55831110000001,VILLA BALLESTER ,Supermercado
121165,12,1,COTO CICSA,COTO CENTRO INTEGRAL DE COMERCIALIZACION S.A.,AR-S,ROSARIO,AV. JUNIN 590,-32.9265135,-60.6720475,ROSARIO TALLERES ,Hipermercado
121167,12,1,COTO CICSA,COTO CENTRO INTEGRAL DE COMERCIALIZACION S.A.,AR-C,CAPITAL FEDERAL,AV. NAZCA 1244,-34.6189821,-58.4754368,NAZCA ,Supermercado
121168,12,1,COTO CICSA,COTO CENTRO INTEGRAL DE COMERCIALIZACION S.A.,AR-C,CAPITAL FEDERAL,AV. CORRIENTES 5748,-34.5951411,-58.44390500000001,VILLA CRESPO ,Supermercado
121170,12,1,COTO CICSA,COTO CENTRO INTEGRAL DE COMERCIALIZACION S.A.,AR-C,CAPITAL FEDERAL,AV. LIBERTADOR 6840,-34.5491869,-58.45444490000001,LIBERTADOR ,Supermercado
121171,12,1,COTO CICSA,COTO CENTRO INTEGRAL DE COMERCIALIZACION S.A.,AR-B,EZEIZA,AVDA. SARMIENTO 524,-34.893322999999995,-58.571979000000006,TRISTAN SUAREZ ,Hipermercado
121174,12,1,COTO CICSA,COTO CENTRO INTEGRAL DE COMERCIALIZACION S.A.,AR-C,CAPITAL FEDERAL,CULLEN 5085,-34.5728529,-58.4878818, CULLEN ,Supermercado
121175,12,1,COTO CICSA,COTO CENTRO INTEGRAL DE COMERCIALIZACION S.A.,AR-C,CAPITAL FEDERAL,TTE. GRAL. JUAN D. PERON 2070,-34.6071216,-58.3960221, PTE. PERON ,Supermercado
121176,12,1,COTO CICSA,COTO CENTRO INTEGRAL DE COMERCIALIZACION S.A.,AR-C,CAPITAL FEDERAL,TEODORO GARCIA 2419,-34.56983579999999,-58.4459054, TEODORO GARCIA ,Supermercado
121178,12,1,COTO CICSA,COTO CENTRO INTEGRAL DE COMERCIALIZACION S.A.,AR-B,GRAL MADARIAGA,RUTA 11 KM 404,-37.185485,-56.951625,MADARIAGA ,Hipermercado
121179,12,1,COTO CICSA,COTO CENTRO INTEGRAL DE COMERCIALIZACION S.A.,AR-S,CUIDAD DE SANTA FE,27 DE FEBRERO 2320,-31.6490499,-60.70394079999999,SANTA FE PUERTO ,Supermercado
12118,12,1,COTO CICSA,COTO CENTRO INTEGRAL DE COMERCIALIZACION S.A.,AR-C,ONCE,HIPOLITO YRIGOYEN 3702,-34.614634,-58.420517,H.YRIGOYEN ,Supermercado
121180,12,1,COTO CICSA,COTO CENTRO INTEGRAL DE COMERCIALIZACION S.A.,AR-C,CAPITAL FEDERAL,AV. SAN PEDRITO 72,-34.631697499999994,-58.46921089999999,SAN PEDRITO ,Supermercado
121181,12,1,COTO CICSA,COTO CENTRO INTEGRAL DE COMERCIALIZACION S.A.,AR-C,SAAVEDRA,AV. RICARDO BALBIN 4027,-34.5549061,-58.4870293,SAAVEDRA ,Hipermercado
121183,12,1,COTO CICSA,COTO CENTRO INTEGRAL DE COMERCIALIZACION S.A.,AR-B,BANFIELD,AV. HIPOLITO YRIGOYEN 8028,-34.74942479999999,-58.400223200000006, BANFIELD ,Supermercado
121184,12,1,COTO CICSA,COTO CENTRO INTEGRAL DE COMERCIALIZACION S.A.,AR-B,MALVINAS ARGENTINAS,AUTOPISTA PANAMERICANA KM. 37.5 1667,-34.4531158,-58.7307037,TORTUGAS ,Hipermercado
121185,12,1,COTO CICSA,COTO CENTRO INTEGRAL DE COMERCIALIZACION S.A.,AR-Q,NEUQUEN,DR RAMON 382,-38.942149918,-68.06446909,NEUQUEN ,Hipermercado
121186,12,1,COTO CICSA,COTO CENTRO INTEGRAL DE COMERCIALIZACION S.A.,AR-B,LANUS,AV. HIPOLITO YRIGOYEN 6174,-34.7269341,-58.3956649,LANUS ,Hipermercado
121188,12,1,COTO CICSA,COTO CENTRO INTEGRAL DE COMERCIALIZACION S.A.,AR-B,VICENTE LOPEZ,AV. MITRE 2951,-34.523962899999994,-58.5208208,MUNRO,Hipermercado
121189,12,1,COTO CICSA,COTO CENTRO INTEGRAL DE COMERCIALIZACION S.A.,AR-B,EZEIZA,RECONQUISTA 1102,-34.8440028,-58.507952,EZEIZA ,Hipermercado
12119,12,1,COTO CICSA,COTO CENTRO INTEGRAL DE COMERCIALIZACION S.A.,AR-C,CONSTITUCION,LIMA 1553,-34.626433,-58.382215,CONSTITUCION ,Supermercado
121192,12,1,COTO CICSA,COTO CENTRO INTEGRAL DE COMERCIALIZACION S.A.,AR-B,LA HORQUETA,URUGUAY 4691,-34.474499,-58.574853,LA HORQUETA ,Hipermercado
121197,12,1,COTO CICSA,COTO CENTRO INTEGRAL DE COMERCIALIZACION S.A.,AR-B,GARIN,AV. BELGRANO 950,-34.417936600000004,-58.7255946,GARIN ,Hipermercado
121199,12,1,COTO CICSA,COTO CENTRO INTEGRAL DE COMERCIALIZACION S.A.,AR-B,CASTELAR,SANTA ROSA 1753,-34.640349,-58.655782,CASTELAR ,Hipermercado
1212,12,1,COTO CICSA,COTO CENTRO INTEGRAL DE COMERCIALIZACION S.A.,AR-C,PATERNAL,AV. SAN MARTIN 2095,-34.604823100000004,-58.45713610000001,AV.SAN MARTIN,Supermercado
12120,12,1,COTO CICSA,COTO CENTRO INTEGRAL DE COMERCIALIZACION S.A.,AR-C,BELGRANO,AV. ELCANO 3693,-34.578357000000004,-58.460232,AV EL CANO ,Supermercado
121203,12,1,COTO CICSA,COTO CENTRO INTEGRAL DE COMERCIALIZACION S.A.,AR-C,BARRIO NORTE,SANTA FE 3760,-34.5847845,-58.4165247,BOTANICO ,Hipermercado
121204,12,1,COTO CICSA,COTO CENTRO INTEGRAL DE COMERCIALIZACION S.A.,AR-B,GENERAL LAVALLE,RUTA 11 KM 330,-36.58216639,-56.71463675,MAR DEL TUYU ,Hipermercado
121208,12,1,COTO CICSA,COTO CENTRO INTEGRAL DE COMERCIALIZACION S.A.,AR-B,SAN ANTONIO DE PADUA,AV. JUAN DOMINGO PERON 24080,-34.666820200000004,-58.703197,MERLO                                                       ,Hipermercado
121209,12,1,COTO CICSA,COTO CENTRO INTEGRAL DE COMERCIALIZACION S.A.,AR-M,MENDOZA,AV. PERU 2760,-32.871590999999995,-68.843574,MENDOZA ,Hipermercado
121215,12,1,COTO CICSA,COTO CENTRO INTEGRAL DE COMERCIALIZACION S.A.,AR-B,MORON,GRAL. JUAN JOSE VALLE 51,-34.6502131,-58.62642090000001,MORON ,Hipermercado
121219,12,1,COTO CICSA,COTO CENTRO INTEGRAL DE COMERCIALIZACION S.A.,AR-B,MORENO,AV. VICTORICA 660,-34.6407405,-58.79411649999,MORENO                                                      ,Hipermercado
12122,12,1,COTO CICSA,COTO CENTRO INTEGRAL DE COMERCIALIZACION S.A.,AR-C,BELGRANO,AV. ELCANO 3002,-34.571895,-58.45868299999999,ELCANO ,Supermercado
121220,12,1,COTO CICSA,COTO CENTRO INTEGRAL DE COMERCIALIZACION S.A.,AR-C,CABA,GASPAR M DE JOVELLANOS 151,-34.6320834,-58.3760678,BARRACAS,Hipermercado
12124,12,1,COTO CICSA,COTO CENTRO INTEGRAL DE COMERCIALIZACION S.A.,AR-C,PALERMO,AV. SCALABRINI ORTIZ 1688,-34.5902858,-58.4240622,SCALABRINI ORTIZ ,Supermercado
12125,12,1,COTO CICSA,COTO CENTRO INTEGRAL DE COMERCIALIZACION S.A.,AR-C,SAN TELMO,PERU 1496,-34.6255187,-58.3736292,SAN TELMO ,Supermercado
12126,12,1,COTO CICSA,COTO CENTRO INTEGRAL DE COMERCIALIZACION S.A.,AR-C,PALERMO,CERVINO 3515,-34.580229,-58.408608,CERVINO ,Supermercado
12135,12,1,COTO CICSA,COTO CENTRO INTEGRAL DE COMERCIALIZACION S.A.,AR-C,VILLA DEVOTO,AV. LOPE DE VEGA 2503,-34.618272999999995,-58.519287,LOPEZ DE VEGA ,Supermercado
12137,12,1,COTO CICSA,COTO CENTRO INTEGRAL DE COMERCIALIZACION S.A.,AR-C,LUGANO,AV. PIEDRABUENA 4902,-34.687601,-58.47536,LUGANO ,Supermercado
12138,12,1,COTO CICSA,COTO CENTRO INTEGRAL DE COMERCIALIZACION S.A.,AR-B,FLORIDA,AV. SAN MARTIN 3029,-34.533164,-58.5024536,FLORIDA ,Supermercado
12139,12,1,COTO CICSA,COTO CENTRO INTEGRAL DE COMERCIALIZACION S.A.,AR-C,LINIERS,AV. EMILIO CASTRO 7661,-34.656142,-58.524475,EMILIO CASTRO ,Supermercado
12140,12,1,COTO CICSA,COTO CENTRO INTEGRAL DE COMERCIALIZACION S.A.,AR-C,FLORES SUR,AV. EVA PERON 2202,-34.638087299999995,-58.4525728,AV.DEL TRABAJO ,Supermercado
12141,12,1,COTO CICSA,COTO CENTRO INTEGRAL DE COMERCIALIZACION S.A.,AR-C,ALMAGRO,AV. DIAZ VELEZ 4531,-34.6087141,-58.4309495,DIAZ VELEZ ,Hipermercado
12142,12,1,COTO CICSA,COTO CENTRO INTEGRAL DE COMERCIALIZACION S.A.,AR-C,BARRIO NORTE,PARAGUAY 2672,-34.5970815,-58.4064955,PARAGUAY ,Supermercado
12143,12,1,COTO CICSA,COTO CENTRO INTEGRAL DE COMERCIALIZACION S.A.,AR-C,BOEDO,AV. BOEDO 777,-34.6221132,-58.4164336,BOEDO ,Hipermercado
12144,12,1,COTO CICSA,COTO CENTRO INTEGRAL DE COMERCIALIZACION S.A.,AR-C,BELGRANO,AV. MONROE 3284,-34.5635828,-58.4684123,MONROE ,Supermercado
12145,12,1,COTO CICSA,COTO CENTRO INTEGRAL DE COMERCIALIZACION S.A.,AR-C,BELGRANO,AV. CABILDO 545,-34.5713409,-58.4420995,CABILDO ,Hipermercado
12146,12,1,COTO CICSA,COTO CENTRO INTEGRAL DE COMERCIALIZACION S.A.,AR-C,ONCE,AV. RIVADAVIA 2846,-34.6101883,-58.406752,ONCE ,Supermercado
12147,12,1,COTO CICSA,COTO CENTRO INTEGRAL DE COMERCIALIZACION S.A.,AR-C,BELGRANO,AMENABAR 2134,-34.562820200000004,-58.4588525,AMENABAR ,Hipermercado
12148,12,1,COTO CICSA,COTO CENTRO INTEGRAL DE COMERCIALIZACION S.A.,AR-C,FLORES,AV. DIRECTORIO 2647,-34.634479,-58.4640708,DIRECTORIO ,Supermercado
12149,12,1,COTO CICSA,COTO CENTRO INTEGRAL DE COMERCIALIZACION S.A.,AR-B,MAR DE AJO,SAN MARTIN 251,-36.7214462,-56.6768593,MAR DE AJO ,Hipermercado
12151,12,1,COTO CICSA,COTO CENTRO INTEGRAL DE COMERCIALIZACION S.A.,AR-B,RAMOS MEJIA,AV. RIVADAVIA 13810,-34.6402654,-58.5617807,RAMOS MEJIA ,Hipermercado
12152,12,1,COTO CICSA,COTO CENTRO INTEGRAL DE COMERCIALIZACION S.A.,AR-C,DEVOTO,SANABRIA 3320,-34.606244200000006,-58.5106551,SANABRIA ,Supermercado
12153,12,1,COTO CICSA,COTO CENTRO INTEGRAL DE COMERCIALIZACION S.A.,AR-B,SANTOS LUGARES,AV. LA PLATA 3635,-34.600212299999995,-58.5446567,SANTOS LUGARES ,Supermercado
12155,12,1,COTO CICSA,COTO CENTRO INTEGRAL DE COMERCIALIZACION S.A.,AR-C,FLORESTA,AV. AVELLANEDA 3758,-34.629043700000004,-58.48169100000001,AVELLANEDA ,Supermercado
12156,12,1,COTO CICSA,COTO CENTRO INTEGRAL DE COMERCIALIZACION S.A.,AR-C,PALERMO,HONDURAS 3862,-34.594128399999995,-58.417548,HONDURAS ,Hipermercado
12157,12,1,COTO CICSA,COTO CENTRO INTEGRAL DE COMERCIALIZACION S.A.,AR-B,SAN MARTIN,SAN MARTIN 122,-34.579198100000006,-58.53616360000001,SAN MARTIN ,Supermercado
12158,12,1,COTO CICSA,COTO CENTRO INTEGRAL DE COMERCIALIZACION S.A.,AR-C,TRIBUNALES,VIAMONTE 1571,-34.6006805,-58.3891667,VIAMONTE ,Hipermercado
12159,12,1,COTO CICSA,COTO CENTRO INTEGRAL DE COMERCIALIZACION S.A.,AR-C,VILLA URQUIZA,AV. MONROE 5055,-34.5740766,-58.4859548,URQUIZA ,Supermercado
1216,12,1,COTO CICSA,COTO CENTRO INTEGRAL DE COMERCIALIZACION S.A.,AR-C,POMPEYA,AV. LA PLATA 2392,-34.64267,-58.422711,AV. LA PLATA ,Supermercado
12160,12,1,COTO CICSA,COTO CENTRO INTEGRAL DE COMERCIALIZACION S.A.,AR-C,FLORES,AV.  J.B. ALBERDI 1737,-34.628167600000005,-58.453314,ALBERDI ,Hipermercado
